stop_id,stop_code,stop_name,stop_desc,stop_lat,stop_lon,zone_id,stop_url,location_type,parent_station,stop_timezone,wheelchair_boarding
24814,24814,Barbadoes St near Canon St,null,-43.51544,172.64586,,,,,,1
40064,40064,Hussey Rd near Springvale Gdns,null,-43.46238,172.59192,,,,,,1
22636,22636,Waltham Rd near Coleridge St,null,-43.54577,172.64697,,,,,,1
43571,43571,Memorial Ave near Ilam Rd,null,-43.51205,172.58006,,,,,,1
18131,18131,Hardy St near Beresford St,null,-43.50875,172.72482,,,,,,1
20451,20451,Hills Rd near Warden St,null,-43.51144,172.65174,,,,,,1
42241,42241,Main North Rd near Kaiapoi Golf Club,null,-43.37198,172.66372,,,,,,1
46608,46608,Halswell Junction Rd near Foremans Rd,null,-43.54362,172.50702,,,,,,1
17282,17282,Highsted Rd near Sapphire St,null,-43.47952,172.59492,,,,,,1
45757,45757,O'Neill Ave near Beechwood Dr,null,-43.46302,172.61903,,,,,,1
21789,21789,Effingham St near Marine Pde,null,-43.49061,172.72417,,,,,,1
12837,12837,Lincoln Rd near Nairn St,null,-43.54811,172.60438,,,,,,1
10656,10656,Guildford St near Wayside Ave,null,-43.50507,172.5802,,,,,,1
36804,36804,Gayhurst Rd near Strathfield Ave,null,-43.51055,172.67379,,,,,,1
53383,53383,Lake Tce Rd near New Brighton Rd,null,-43.50019,172.68355,,,,,,1
54239,54239,Innes Rd near Nancy Ave,null,-43.49984,172.6385,,,,,,1
11500,11500,The Hub Hornby,null,-43.54227,172.52248,,,,,,1
33779,33779,Patterson Tce near Alvaston Dr,null,-43.57556,172.5534,,,,,,1
20467,20467,Hills Rd near Dudley St,null,-43.51497,172.65175,,,,,,1
41382,41382,Fendalton Rd near Waiwetu St,null,-43.51879,172.59194,,,,,,1
18149,18149,Seaview Rd,null,-43.5087,172.72312,,,,,,1
17295,17295,Veitches Rd near Larch Pl,null,-43.48159,172.59845,,,,,,1
40055,40055,Town Hall,null,-43.3042,172.58964,,,,,,1
21791,21791,Effingham St near Surfers Pl,null,-43.4917,172.72115,,,,,,1
23972,23972,Sydenham Shops,null,-43.54709,172.63677,,,,,,1
39061,39061,Travis Rd near Travis Country Dr,null,-43.49315,172.69756,,,,,,1
42239,42239,Winchester St near Coleridge Tce,null,-43.60097,172.71972,,,,,,1
54241,54241,Greers Rd near Westburn Terrace,null,-43.51008,172.57504,,,,,,1
11516,11516,Rossall St near Rhodes St,null,-43.52164,172.6171,,,,,,1
10660,10660,Carlton Mill Rd near Shrewsbury St,null,-43.52094,172.62375,,,,,,1
29273,29273,Regents Park Dr near Styx Mill Rd,null,-43.46936,172.61551,,,,,,1
12844,12844,Papanui Rd near Webb St,null,-43.5153,172.62416,,,,,,1
33767,33767,Nottingham Ave near Arkwright Pl,null,-43.57376,172.55683,,,,,,1
11996,11996,St Martins Rd near Ensors Rd,null,-43.55284,172.65729,,,,,,1
17269,17269,Veitches Rd near Kimberley St,null,-43.48195,172.59523,,,,,,1
40040,40040,Port Hills Rd near Curries Rd,null,-43.56225,172.67573,,,,,,1
39057,39057,New Brighton Rd near Locksley Ave,null,-43.50415,172.68201,,,,,,1
23940,23940,Colombo St near Southampton St,null,-43.55256,172.63692,,,,,,1
15083,15083,Main North Rd near Parsonage Rd,null,-43.3214,172.6657,,,,,,1
11965,11965,Barrington St near Wychbury St,null,-43.55461,172.61581,,,,,,1
32421,32421,Opawa Rd near Brougham St,null,-43.55494,172.67,,,,,,1
29241,29241,Regents Park Dr near Styx Mill Rd,null,-43.46917,172.61561,,,,,,1
10639,10639,Clyde Rd near Morley St,null,-43.50562,172.58677,,,,,,1
33751,33751,Patterson Tce near Clipston Pl,null,-43.57403,172.55363,,,,,,1
12816,12816,Papanui Rd near Weston Rd,null,-43.50781,172.6179,,,,,,1
54256,54256,Greers Rd near Westburn Terrace,null,-43.5107,172.57461,,,,,,1
55108,55108,Rolleston College,null,-43.60561,172.38841,,,,,,1
23955,23955,Colombo St near Byron St,null,-43.54295,172.63674,,,,,,1
39042,39042,Awatea Rd near Owaka Rd,null,-43.55774,172.54411,,,,,,1
38197,38197,Amyes Rd near Trevor St,null,-43.55145,172.53269,,,,,,1
24805,24805,Yaldhurst Rd near Bucknell St,null,-43.52738,172.55749,,,,,,1
15096,15096,Rangiora Woodend Rd near Chinnerys Rd,null,-43.31902,172.65747,,,,,,1
42698,42698,Colenso St near Menzies St,null,-43.57575,172.76314,,,,,,1
40038,40038,North Pde near Poulton Ave,null,-43.51361,172.66064,,,,,,1
54260,54260,Victoria St near Peterborough St,null,-43.52518,172.63158,,,,,,1
20446,20446,Broadhaven Ave near Anglesea Ave,null,-43.4748,172.70248,,,,,,1
42218,42218,Dublin St near Norwich Qy,null,-43.60253,172.71798,,,,,,1
45726,45726,Charlesworth St near Ti Rakau Dr,null,-43.55352,172.6966,,,,,,1
11977,11977,Harvard Ave and Main South Rd,null,-43.54263,172.54721,,,,,,1
55112,55112,Silverstream Blvd near Island Rd,null,-43.37873,172.63775,,,,,,1
32893,32893,Huntsbury Ave near Vista Pl,null,-43.57196,172.65453,,,,,,1
19459,19459,Harewood Rd near Trafford St,null,-43.48341,172.57721,,,,,,1
10641,10641,Clyde Rd near Hooker Ave,null,-43.50497,172.58477,,,,,,1
38184,38184,Awatea Rd near Dix St,null,-43.55255,172.53633,,,,,,1
15065,15065,Main North Rd near Woodend Beach Rd,null,-43.33414,172.66654,,,,,,1
20894,20894,Broadhaven Ave near Ferngrove Pl,null,-43.47355,172.69945,,,,,,1
18578,18578,N Avon Rd near Tweed St,null,-43.51766,172.65807,,,,,,1
42680,42680,Sumner,null,-43.5818,172.75661,,,,,,1
39035,39035,Awatea Rd near Owaka Rd,null,-43.55749,172.54387,,,,,,1
41353,41353,Templeton,null,-43.55181,172.47223,,,,,,1
23929,23929,Hargood St near Clydesdale St,null,-43.54303,172.68343,,,,,,1
55120,55120,Silverstream Blvd near Island Rd,null,-43.37854,172.63784,,,,,,1
54273,54273,Waimairi Rd near Dovedale Ave,null,-43.52105,172.57277,,,,,,1
20414,20414,Queenspark,null,-43.47563,172.70733,,,,,,1
43537,43537,Rossall St near Highgate Ave,null,-43.51822,172.61462,,,,,,1
32886,32886,Huntsbury Ave,null,-43.56716,172.65278,,,,,,1
11949,11949,Clarence St near Peverel St,null,-43.53127,172.60205,,,,,,1
10618,10618,Clyde Rd near Wai-iti Tce,null,-43.51148,172.59007,,,,,,1
32409,32409,Ramahana Rd near Aotea Tce,null,-43.56582,172.65542,,,,,,1
19428,19428,Colombo St near Bealey Ave,null,-43.52026,172.63652,,,,,,1
20422,20422,Broadhaven Ave near Ferngrove Pl,null,-43.47346,172.69953,,,,,,1
40491,40491,Ferry Rd near Osborne St,null,-43.54158,172.66275,,,,,,1
38178,38178,Awatea Rd near Dix St,null,-43.55253,172.53606,,,,,,1
17253,17253,Riccarton Ave,null,-43.53112,172.6161,,,,,,1
18584,18584,Beach Rd near Bower Ave,null,-43.48645,172.71253,,,,,,1
15077,15077,Woodend (Main North Rd),null,-43.32778,172.66613,,,,,,1
43528,43528,Williams St near Courtenay Drive,null,-43.39136,172.65319,,,,,,1
41348,41348,Fendalton,null,-43.5186,172.59199,,,,,,1
40017,40017,Rossall St near Highgate Ave,null,-43.51838,172.61493,,,,,,1
29239,29239,Daniels Rd near Marwick Pl,null,-43.4785,172.62309,,,,,,1
55131,55131,Adderley Tce near Penney Ave,null,-43.37743,172.64269,,,,,,1
44858,44858,Ti Rakau Dr near Kestrel Pl,null,-43.54869,172.69521,,,,,,1
54287,54287,Waimairi Rd near Dovedale Ave,null,-43.52104,172.5726,,,,,,1
11954,11954,St Martins Rd near Wilding St,null,-43.55486,172.65306,,,,,,1
32872,32872,Huntsbury Ave near Ramahana Rd,null,-43.5643,172.65308,,,,,,1
10625,10625,Clyde Rd near Evatt St,null,-43.50781,172.58873,,,,,,1
19437,19437,Veitches Rd near Larch Pl,null,-43.48172,172.59836,,,,,,1
12800,12800,Papanui Rd near Milford St,null,-43.50959,172.61956,,,,,,1
18108,18108,Wainoni Rd near Ottawa Rd,null,-43.51718,172.6865,,,,,,1
41330,41330,New Brighton Rd near Bower Ave,null,-43.50354,172.70869,,,,,,1
20873,20873,Queenspark,null,-43.47573,172.70727,,,,,,1
23901,23901,Hargood St and Linwood Ave,null,-43.54101,172.68468,,,,,,1
19400,19400,Colombo St near Canon St,null,-43.51531,172.6365,,,,,,1
38166,38166,Awatea Rd near Awatea Gdns,null,-43.554,172.53813,,,,,,1
14198,14198,Buchanans Rd near Peebles Dr,null,-43.53463,172.54215,,,,,,1
16370,16370,Wairakei Rd near Charlcott St,null,-43.49412,172.57532,,,,,,1
54294,54294,Cranford St near Knowles St,null,-43.5018,172.6321,,,,,,1
42667,42667,Wakefield Ave near Paisley St,null,-43.5796,172.75606,,,,,,1
32864,32864,Ramahana Rd near Aotea Tce,null,-43.56467,172.65442,,,,,,1
55149,55149,Adderley Tce near Penney Ave,null,-43.37762,172.64282,,,,,,1
15049,15049,Main North Rd near the lakes,null,-43.35683,172.66461,,,,,,1
39019,39019,Main South Rd near Canterbury St,null,-43.54277,172.53339,,,,,,1
30688,30688,Gloucester St near Latimer Square,null,-43.52977,172.6415,,,,,,1
33714,33714,Selwyn St near Bletsoe Ave,null,-43.55151,172.62427,,,,,,1
26170,26170,Woodend (Main North Rd),null,-43.32785,172.66596,,,,,,1
42651,42651,Nayland St near Head St,null,-43.57401,172.76679,,,,,,1
18566,18566,Marine Pde near Rawhiti Ave,null,-43.49989,172.72807,,,,,,1
39003,39003,Main South Rd near Tower St,null,-43.5433,172.52837,,,,,,1
17230,17230,Riccarton Ave (Hospital),null,-43.53397,172.6224,,,,,,1
23917,23917,Colombo St near Boon St,null,-43.55439,172.63693,,,,,,1
20405,20405,Broadhaven Ave near Jacaranda Pl,null,-43.47205,172.6983,,,,,,1
21736,21736,Effingham St near Pegasus Ave,null,-43.48711,172.71725,,,,,,1
20887,20887,Bower Ave near Pinewood Ave,null,-43.48897,172.71161,,,,,,1
38150,38150,Awatea Rd near Awatea Gdns,null,-43.55417,172.53811,,,,,,1
10602,10602,Clyde Rd near Jeffreys Rd,null,-43.51311,172.59053,,,,,,1
30674,30674,Marriner St near Wakefield Ave,null,-43.56851,172.75921,,,,,,1
55154,55154,Wooldridge Rd,null,-43.48427,172.56744,,,,,,1
26189,26189,Estuary Rd near Beatty St,null,-43.52779,172.73473,,,,,,1
33705,33705,Selwyn St near Cheviot St,null,-43.55253,172.62542,,,,,,1
19416,19416,Harewood Rd near Gardiners Rd,null,-43.48484,172.58068,,,,,,1
11931,11931,Cashmere Rd near Crichton Tce,null,-43.56773,172.62709,,,,,,1
32855,32855,Ramahana Rd near Aotea Tce,null,-43.56546,172.65523,,,,,,1
24418,24418,Barbadoes St near Bealey Ave,null,-43.52011,172.64605,,,,,,1
10251,10251,Maidstone Rd near Colina St,null,-43.51693,172.55738,,,,,,1
23566,23566,Ferry Rd near Phillipstown Cts,null,-43.54045,172.65908,,,,,,1
19060,19060,Highsted Rd near Glenmore Ave,null,-43.47729,172.59646,,,,,,1
53781,53781,Yaldhurst,null,-43.51234,172.50716,,,,,,1
32048,32048,Carmen Rd near Halwyn Dr,null,-43.53211,172.5318,,,,,,1
54633,54633,Gardiners Road near Cullahill Street,null,-43.47974,172.58377,,,,,,1
22230,22230,Westlake Dr near Hemingford Pl,null,-43.5702,172.5563,,,,,,1
51126,51126,Disraeli St near Selwyn St,null,-43.5423,172.62266,,,,,,1
43172,43172,Harper Ave near Deans Ave,null,-43.52403,172.61386,,,,,,1
12431,12431,Stanmore Rd near Lychgate Cl,null,-43.52595,172.65697,,,,,,1
36889,36889,Buckleys Rd near Pamela St,null,-43.5305,172.67715,,,,,,1
14612,14612,Gilberthorpes Rd near Waterloo Rd,null,-43.5404,172.51576,,,,,,1
53308,53308,Westfield Riccarton,null,-43.52977,172.5995,,,,,,1
15943,15943,Main North Rd near Swift St,null,-43.45241,172.62783,,,,,,1
13766,13766,Lake Terrace Rd near Fairway Dr,null,-43.4946,172.6656,,,,,,1
43164,43164,Wairakei Rd near Jennifer St,null,-43.50202,172.59094,,,,,,1
36870,36870,Kerrs Rd,null,-43.52569,172.68144,,,,,,1
44014,44014,Ashley St near River Rd,null,-43.28973,172.59295,,,,,,1
11592,11592,Hoon Hay Rd near Cashmere Rd,null,-43.57379,172.61458,,,,,,1
32030,32030,Blenheim Rd near Cable St,null,-43.53927,172.56148,,,,,,1
19073,19073,Highsted Rd near Sapphire St,null,-43.47965,172.59464,,,,,,1
26601,26601,Southern Park and Ride (South Belt),null,-43.31861,172.59292,,,,,,1
24425,24425,Flockton St near Archer St,null,-43.50466,172.64395,,,,,,1
33369,33369,Milton St,null,-43.5524,172.63019,,,,,,1
15958,15958,Main North Rd near Thompsons Rd,null,-43.4573,172.62469,,,,,,1
3248,3248,Mt Pleasant Terminus,null,-43.55824,172.72919,,,,,,1
37721,37721,Memorial Ave near Hampton Pl,null,-43.51062,172.57778,,,,,,1
54646,54646,Southbridge,null,-43.81131,172.25153,,,,,,1
53799,53799,Yaldhurst,null,-43.51254,172.5074,,,,,,1
13778,13778,Lake Terrace Rd near Lakewood Dr,null,-43.49453,172.67642,,,,,,1
10267,10267,Maidstone Rd near Radbrook St,null,-43.51704,172.55997,,,,,,1
11117,11117,Lyttelton St near Conway St,null,-43.56558,172.615,,,,,,1
24879,24879,Springs Rd near Caudron Rd,null,-43.54695,172.54191,,,,,,1
43155,43155,Wairakei Rd near Pitcairn Cres,null,-43.50464,172.59671,,,,,,1
3263,3263,NTA,null,-43.46423,172.44606,,,,,,1
3262,3262,NTA,null,-43.46408,172.4459,,,,,,1
23545,23545,Aylmer St and Colombo St,null,-43.5588,172.63679,,,,,,1
54651,54651,Southbridge Hotel,null,-43.81146,172.25191,,,,,,1
15927,15927,Main North Rd near Richill St,null,-43.44512,172.63253,,,,,,1
50295,50295,Ellesmere Junction Rd near Mather Pl,null,-43.64221,172.41985,,,,,,1
32024,32024,Hackthorne Rd near Gwynfa Ave,null,-43.5741,172.62455,,,,,,1
36862,36862,Woodham Rd near Carnarvon St,null,-43.52512,172.67747,,,,,,1
10233,10233,Withells Rd near Gainford St,null,-43.51413,172.5542,,,,,,1
12892,12892,Papanui Rd near Tomes Rd,null,-43.50421,172.61458,,,,,,1
44482,44482,Main North Rd near Hewitts Rd,null,-43.31769,172.66759,,,,,,1
11563,11563,Ensors Rd near Grenville St,null,-43.5445,172.66336,,,,,,1
13745,13745,Burwood Rd near Helmsdale St,null,-43.48639,172.68245,,,,,,1
12412,12412,Stanmore Rd near London St,null,-43.52002,172.65629,,,,,,1
44476,44476,King St near Royal Tce,null,-43.2968,172.5889,,,,,,1
22224,22224,Lancewood Dr near Westlake Dr,null,-43.57174,172.55939,,,,,,1
24402,24402,Barbadoes St near Canon St,null,-43.51584,172.64604,,,,,,1
14608,14608,Manurere St near Tauiwi Cres,null,-43.531,172.52515,,,,,,1
53331,53331,Silverstream,null,-43.38031,172.63613,,,,,,1
33348,33348,Cashmere Rd near Penruddock Rse,null,-43.57506,172.60502,,,,,,1
15936,15936,Main North Rd near Donegal St,null,-43.44708,172.63125,,,,,,1
37709,37709,Greers Rd near Saffron St,null,-43.49844,172.58726,,,,,,1
51157,51157,Woodham Rd near Tancred St,null,-43.52514,172.67086,,,,,,1
32011,32011,Colombo St near Fisher Ave,null,-43.56023,172.63698,,,,,,1
23550,23550,Colombo St near Fisher Ave,null,-43.56025,172.63681,,,,,,1
43140,43140,Highsted Rd,null,-43.48134,172.5935,,,,,,1
13750,13750,Stanmore Rd near Gloucester St,null,-43.5303,172.65698,,,,,,1
12420,12420,Stanmore Rd near Alexandra St,null,-43.52289,172.65647,,,,,,1
42294,42294,Port Hills Rd near Nuttall Dr,null,-43.56643,172.68028,,,,,,1
54667,54667,Kaiapoi Central Park & Ride,null,-43.38298,172.66049,,,,,,1
10246,10246,Maidstone Rd near Derenzy Pl,null,-43.51639,172.55432,,,,,,1
20498,20498,Queenspark Dr near Chadlington St,null,-43.47512,172.69476,,,,,,1
44469,44469,Main North Rd near Hewitts Rd,null,-43.31783,172.66767,,,,,,1
25706,25706,Waterloo Rd near Kissel St,null,-43.55329,172.47632,,,,,,1
47976,47976,James St near Boundary Rd,null,-43.6362,172.48916,,,,,,1
19025,19025,Cranford St near Mcfaddens Rd,null,-43.49919,172.62989,,,,,,1
18177,18177,Wainoni Rd near Ottawa Rd,null,-43.51716,172.68672,,,,,,1
42287,42287,Main North Rd near Lees Rd,null,-43.35417,172.66441,,,,,,1
23521,23521,Ferry Rd near Bordesley St,null,-43.54117,172.66129,,,,,,1
24851,24851,Carmen Rd near Waterloo Rd,null,-43.53774,172.52827,,,,,,1
15904,15904,Kainga,null,-43.4189,172.65282,,,,,,1
33330,33330,Cashmere Rd near Mavin Rd,null,-43.57416,172.61365,,,,,,1
32484,32484,Glovers Rd near Larsens Rd,null,-43.59343,172.5681,,,,,,1
53349,53349,Silverstream,null,-43.38027,172.63589,,,,,,1
12871,12871,Papanui Rd near Mays Rd,null,-43.5055,172.61556,,,,,,1
10694,10694,Whitby St near Everest St,null,-43.49863,172.56877,,,,,,1
32007,32007,Buchanans Rd near Dumfries Dr,null,-43.53178,172.53272,,,,,,1
13721,13721,Beach Rd near Effingham St,null,-43.48629,172.71637,,,,,,1
10214,10214,Avonhead Mall,null,-43.51083,172.55611,,,,,,1
46631,46631,Merrin St near Withells Rd,null,-43.51041,172.55708,,,,,,1
42273,42273,Port Hills Rd near Avoca Valley Rd,null,-43.56968,172.68378,,,,,,1
45301,45301,Burwood Rd,null,-43.48094,172.68104,,,,,,1
44453,44453,King St near Royal Tce,null,-43.2968,172.58873,,,,,,1
18183,18183,Wainoni Rd near Avonside Dr,null,-43.51497,172.68869,,,,,,1
25710,25710,Waterloo Rd,null,-43.54248,172.503,,,,,,1
23532,23532,Hackthorne Rd near Westenra Tce,null,-43.57806,172.6334,,,,,,1
54680,54680,Travis Road near Atlantis Street,null,-43.49358,172.70447,,,,,,1
32478,32478,Roydvale Ave,null,-43.49023,172.56571,,,,,,1
12408,12408,Burwood Rd near Lakewood Dr,null,-43.49355,172.68403,,,,,,1
15915,15915,Main North Rd near Link Rd,null,-43.42369,172.65122,,,,,,1
51174,51174,Gardiners Rd near Sawyers Arms Rd,null,-43.47676,172.58585,,,,,,1
54202,54202,Penruddock Rise near Sedbergh Place,null,-43.58361,172.60117,,,,,,1
10222,10222,Withells Rd near Apsley Dr,null,-43.51216,172.55534,,,,,,1
13732,13732,Burwood Rd near Mairehau Rd,null,-43.48321,172.68105,,,,,,1
12885,12885,Papanui Rd near Normans Rd,null,-43.50611,172.61633,,,,,,1
19485,19485,Harewood Rd near Cotswold Ave,null,-43.48647,172.58457,,,,,,1
23509,23509,Ferry Rd near Manning Pl,null,-43.5437,172.66796,,,,,,1
19002,19002,Claridges Rd near Opal Pl,null,-43.47599,172.6006,,,,,,1
39090,39090,Bassett St near Tobin Ln,null,-43.49957,172.68806,,,,,,1
43117,43117,Rocking Horse Rd near Heron St,null,-43.54209,172.74386,,,,,,1
44448,44448,Main Nth Rd near Gressons Rd,null,-43.29512,172.68422,,,,,,1
24833,24833,Yaldhurst Rd near Corfe St,null,-43.52874,172.5612,,,,,,1
33798,33798,Halswell Rd near Halswell Junction Rd,null,-43.58633,172.57065,,,,,,1
51188,51188,Gardiners Rd near Sawyers Arms Rd,null,-43.4776,172.58537,,,,,,1
33311,33311,Cashmere Rd near Kaiwara St,null,-43.57449,172.61043,,,,,,1
54698,54698,Acacia Avenue near Beech Dr,null,-43.30952,172.57384,,,,,,1
53365,53365,Richill St near Main North Rd,null,-43.44497,172.63332,,,,,,1
54218,54218,Prestons Rd near Alpine View,null,-43.47388,172.67274,,,,,,1
42260,42260,Main North Rd near Williams St,null,-43.36979,172.66409,,,,,,1
24846,24846,Russley,null,-43.518,172.53841,,,,,,1
42256,42256,Port Hills Rd near Chapmans Rd,null,-43.57053,172.68651,,,,,,1
19018,19018,Highsted Rd near Ludhiana St,null,-43.47582,172.59761,,,,,,1
39088,39088,New Brighton Rd,null,-43.50017,172.68634,,,,,,1
45761,45761,Harewood Rd near Waimakariri Rd,null,-43.47919,172.55854,,,,,,1
18165,18165,Wainoni Rd near Cuffs Rd,null,-43.51879,172.68497,,,,,,1
43101,43101,Memorial Ave near Ilam Rd,null,-43.51216,172.57994,,,,,,1
19492,19492,Bishopdale Mall (Harewood Rd),null,-43.48781,172.58785,,,,,,1
33780,33780,Halswell Rd near Larsens Rd,null,-43.58884,172.56993,,,,,,1
51190,51190,Woodham Rd near Ngarimu St,null,-43.52505,172.67461,,,,,,1
23513,23513,Ferry Rd near Isabella Pl,null,-43.54259,172.66497,,,,,,1
10205,10205,Avonhead Mall,null,-43.5096,172.55371,,,,,,1
54225,54225,Innes Rd near Nancy Ave,null,-43.49959,172.63868,,,,,,1
32450,32450,Lake Terrace Rd near De Ville Pl,null,-43.49916,172.6822,,,,,,1
53377,53377,Lake Tce Rd near New Brighton Rd,null,-43.50005,172.68373,,,,,,1
33307,33307,Hoon Hay Rd,null,-43.56384,172.60845,,,,,,1
29294,29294,Main North Rd near Queen Elizabeth II Dr,null,-43.48514,172.6164,,,,,,1
13713,13713,Beach Rd near Bower Ave,null,-43.48636,172.71266,,,,,,1
12863,12863,Papanui Rd near Tomes Rd,null,-43.5034,172.61365,,,,,,1
10687,10687,Rossall St near Holmwood Rd,null,-43.51989,172.61581,,,,,,1
51518,51518,Corsair Dr near Harvard Ave,null,-43.54799,172.54484,,,,,,1
37692,37692,Riccarton Rd near Balgay St,null,-43.53099,172.58322,,,,,,1
11062,11062,Lincoln University,null,-43.64271,172.46769,,,,,,1
12393,12393,Mairehau Rd near Royal Pk Dr,null,-43.48013,172.69554,,,,,,1
26557,26557,Estuary Rd,null,-43.52359,172.73291,,,,,,1
28732,28732,Opawa Rd near Ensors Rd,null,-43.55073,172.66031,,,,,,1
24378,24378,Yaldhurst Rd near Angela St,null,-43.53147,172.57031,,,,,,1
40869,40869,Beach Rd near Britannia St,null,-43.48638,172.71896,,,,,,1
22194,22194,Lyttelton St near Glynne Cres,null,-43.55783,172.60969,,,,,,1
50670,50670,Hansons Ln near Arthur St,null,-43.53832,172.57473,,,,,,1
17604,17604,Memorial Ave near Roydvale Ave,null,-43.50034,172.56104,,,,,,1
38546,38546,St Albans St near Devonport Ln,null,-43.51231,172.62403,,,,,,1
18938,18938,Tuam St near Saxon St,null,-43.53552,172.65557,,,,,,1
53706,53706,Gloucester St near Fitzgerald Ave,null,-43.52989,172.65287,,,,,,1
51525,51525,Corsair Dr near Gallaghan Cl,null,-43.55036,172.54885,,,,,,1
52856,52856,Brookside Rd near Stonebrook Dr,null,-43.60084,172.36914,,,,,,1
13249,13249,Kahu Rd near Titoki St,null,-43.52669,172.6006,,,,,,1
14581,14581,Hagley Ave near Selwyn St,null,-43.53732,172.62221,,,,,,1
13254,13254,Clyde Rd near Arts Rd,null,-43.52388,172.5887,,,,,,1
47003,47003,Mcgregors Rd near Ruru Rd,null,-43.53081,172.68449,,,,,,1
40853,40853,Halswell Rd near Warren Cres,null,-43.56017,172.58356,,,,,,1
40848,40848,Wainoni Rd near Avonside Dr,null,-43.51481,172.68862,,,,,,1
52860,52860,Rolleston (Kidman St),null,-43.59033,172.38314,,,,,,1
17615,17615,Memorial Ave near Grangewood Ln,null,-43.50411,172.56704,,,,,,1
38533,38533,Springfield Rd near Kinloch St,null,-43.51168,172.63199,,,,,,1
53710,53710,Gloucester St near Fitzgerald Ave,null,-43.52979,172.65321,,,,,,1
16764,16764,Wairakei Rd near Blighs Rd,null,-43.5067,172.59915,,,,,,1
36359,36359,Mccormacks Bay Rd near Maffeys Rd,null,-43.5595,172.72547,,,,,,1
50689,50689,Hansons Ln near Haynes Ave,null,-43.53377,172.5739,,,,,,1
51539,51539,The Runway near Kittyhawk Ave,null,-43.55449,172.55281,,,,,,1
50207,50207,Godley Rd,null,-43.61703,172.30774,,,,,,1
10192,10192,Hawthornden Rd near Henridge Pl,null,-43.50939,172.55072,,,,,,1
13220,13220,Kotare St near Kahu Rd,null,-43.52467,172.59611,,,,,,1
11043,11043,Centaurus Rd near Austin Kirk Ln,null,-43.56527,172.64783,,,,,,1
12372,12372,Main North Rd near Swift St,null,-43.45222,172.62763,,,,,,1
46146,46146,Linwood Ave near Cashel St,null,-43.53296,172.67236,,,,,,1
28713,28713,Fitzgerald Ave near Armagh St,null,-43.52817,172.65033,,,,,,1
50691,50691,Hansons Ln near Haynes Ave,null,-43.53387,172.57409,,,,,,1
24350,24350,Emmett St near Riselaw St,null,-43.5058,172.65494,,,,,,1
52873,52873,Cranley St,null,-43.53352,172.67542,,,,,,1
50211,50211,Aylesbury Rd near Runners Rd,null,-43.61269,172.31268,,,,,,1
51541,51541,The Runway near Dalwood Dve,null,-43.55593,172.54987,,,,,,1
53723,53723,Innes Road near Severn Street,null,-43.50164,172.63447,,,,,,1
15887,15887,Main North Rd near Neeves Rd,null,-43.40365,172.64579,,,,,,1
38522,38522,Springfield Rd near Kinloch St,null,-43.51174,172.63223,,,,,,1
16738,16738,Sawyers Arms Rd,null,-43.48134,172.59242,,,,,,1
15405,15405,Papanui,null,-43.49827,172.60911,,,,,,1
13231,13231,Kahu Rd near Girvan St,null,-43.52504,172.59814,,,,,,1
38994,38994,Main South Rd near Canterbury St,null,-43.54308,172.53127,,,,,,1
37663,37663,Burnside High School,null,-43.50699,172.57912,,,,,,1
26542,26542,Estuary Rd near Bellamy Ave,null,-43.52111,172.73184,,,,,,1
23033,23033,Eastgate Mall (Linwood Ave),null,-43.5354,172.67564,,,,,,1
52887,52887,Salisbury St near Victoria St,null,-43.52436,172.63155,,,,,,1
15414,15414,Papanui Rd near Blighs Rd,null,-43.50045,172.61113,,,,,,1
53734,53734,Marine Parade near Beresford St,null,-43.50711,172.73097,,,,,,1
46133,46133,Gloucester St near Barbadoes St,null,-43.52991,172.64446,,,,,,1
12386,12386,Main North Rd near Factory Rd,null,-43.44239,172.63403,,,,,,1
51556,51556,Wharenui Rd near Janet St,null,-43.53647,172.58696,,,,,,1
38514,38514,Edgeware Rd near Caledonian Rd,null,-43.51336,172.63568,,,,,,1
10171,10171,Hyde Park,null,-43.51628,172.54621,,,,,,1
15860,15860,Woodend Rd near Greenwood Cl,null,-43.32042,172.66078,,,,,,1
24332,24332,Buchanans Rd near Peebles Dr,null,-43.53372,172.53957,,,,,,1
22156,22156,Selwyn St near Ruskin St,null,-43.54655,172.62191,,,,,,1
40824,40824,Wairakei Rd near Jennifer St,null,-43.50237,172.59183,,,,,,1
26999,26999,Gloucester St,null,-43.52992,172.6659,,,,,,1
51560,51560,Wharenui Rd near Riccarton Rd,null,-43.53127,172.58616,,,,,,1
13208,13208,Guildford St near Wadhurst Pl,null,-43.50431,172.57762,,,,,,1
52894,52894,Bealey Ave,null,-43.52176,172.62879,,,,,,1
25660,25660,Westlake Dr near Eskdale Pl,null,-43.57,172.55734,,,,,,1
50230,50230,Two Chain Rd near Aylesbury Rd,null,-43.60367,172.30772,,,,,,1
23482,23482,Radley St near Tavender St,null,-43.55025,172.67554,,,,,,1
12355,12355,Belfast,null,-43.43927,172.63608,,,,,,1
14534,14534,Epsom Rd near Carbine Pl,null,-43.53328,172.54922,,,,,,1
38987,38987,Main South Rd near Tower St,null,-43.54312,172.52774,,,,,,1
13685,13685,Stanmore Rd near Haast St,null,-43.52749,172.65699,,,,,,1
11027,11027,Main South Rd near English St,null,-43.53309,172.56574,,,,,,1
43091,43091,Maidstone Rd near Farnham Pl,null,-43.51735,172.5741,,,,,,1
38505,38505,Barbadoes St near Edgeware Rd,null,-43.51283,172.64585,,,,,,1
53747,53747,Halswell Shops,null,-43.57958,172.56682,,,,,,1
10185,10185,Kedleston Dr near Audley Gate,null,-43.51112,172.54897,,,,,,1
43089,43089,Main South Rd near Carmen Rd,null,-43.54341,172.5238,,,,,,1
36794,36794,Cresswell Ave near Gayhurst Rd,null,-43.50762,172.6729,,,,,,1
33284,33284,Moorhouse Ave near Antigua St,null,-43.54011,172.62721,,,,,,1
23014,23014,Hay St near Kuaka Cres,null,-43.53285,172.6853,,,,,,1
24345,24345,Emmett St near Shirley Rd,null,-43.50783,172.65586,,,,,,1
40807,40807,Wairakei Rd near Greers Rd,null,-43.49972,172.58663,,,,,,1
22160,22160,Halswell Rd near Halswell Junction Rd,null,-43.58587,172.57053,,,,,,1
53752,53752,Marine Parade near Beresford Street,null,-43.50666,172.73065,,,,,,1
51573,51573,Wharenui Rd near Riccarton Rd,null,-43.53164,172.58639,,,,,,1
25673,25673,Westlake,null,-43.56793,172.55637,,,,,,1
23495,23495,"Cashmere ",null,-43.58111,172.63562,,,,,,1
45262,45262,Rolleston Dr near Renoir Dr,null,-43.60043,172.37549,,,,,,1
38973,38973,Main South Rd near Springs Rd,null,-43.54326,172.54319,,,,,,1
37644,37644,Whiteleigh Ave near Leamington St,null,-43.54221,172.60549,,,,,,1
12364,12364,Halswell Rd near Warren Cres,null,-43.55971,172.58464,,,,,,1
47440,47440,Clarence St near Dilworth St,null,-43.53208,172.6023,,,,,,1
15873,15873,Main North Rd,null,-43.39887,172.64884,,,,,,1
13212,13212,Guildford St near Heath St,null,-43.5032,172.57588,,,,,,1
18901,18901,Seaview Rd,null,-43.50887,172.72291,,,,,,1
54605,54605,Hereford St near Latimer Square,null,-43.53196,172.64152,,,,,,1
47438,47438,Rolleston Dr near Othello Dr,null,-43.59786,172.38159,,,,,,1
14990,14990,Bealey Ave,null,-43.52204,172.63652,,,,,,1
24795,24795,Emmett St near Skipton St,null,-43.4967,172.65476,,,,,,1
24313,24313,Buchanans Rd near Cicada Pl,null,-43.53279,172.53663,,,,,,1
50253,50253,Jones Rd (Templeton),null,-43.55635,172.46802,,,,,,1
51587,51587,Wharenui Rd near Puna St,null,-43.53604,172.58706,,,,,,1
53768,53768,Birchs Rd near Oaks Dr,null,-43.63082,172.49324,,,,,,1
51103,51103,Ti Rakau Dr near Delta Wy,null,-43.55174,172.69498,,,,,,1
54614,54614,Hereford St near Latimer Square,null,-43.53213,172.64138,,,,,,1
11004,11004,Cashmere Rd near Thorrington Rd,null,-43.5666,172.63288,,,,,,1
12338,12338,Williams St near Holland Drive,null,-43.39387,172.65186,,,,,,1
37637,37637,Clarence St near Burdale St,null,-43.53342,172.6025,,,,,,1
43070,43070,Maidstone Rd near Farnham Pl,null,-43.51847,172.5758,,,,,,1
10159,10159,Kedleston Dr near Apsley Dr,null,-43.51381,172.54701,,,,,,1
13671,13671,Ilam Rd near Montana Ave,null,-43.52088,172.57957,,,,,,1
10163,10163,Kedleston Dr near Greystoke Ln,null,-43.51377,172.54681,,,,,,1
24321,24321,Briggs Rd,null,-43.49624,172.65307,,,,,,1
23476,23476,Cashmere,null,-43.58123,172.6355,,,,,,1
25656,25656,Westlake Dr near Lancewood Dr,null,-43.57077,172.55947,,,,,,1
26503,26503,Estuary Rd near Bellamy Ave,null,-43.52109,172.73167,,,,,,1
26981,26981,Kingsbury Ave near Melford Cl,null,-43.29647,172.58607,,,,,,1
33266,33266,Moorhouse Ave near Montreal St,null,-43.5401,172.63011,,,,,,1
54622,54622,Gardiners Road near Cullahill Street,null,-43.47931,172.5838,,,,,,1
51594,51594,Hereford St near Barbadoes St,null,-43.53196,172.64477,,,,,,1
53775,53775,West Melton shops,null,-43.5229,172.37002,,,,,,1
22141,22141,Barrington Mall (Athelstan St),null,-43.55661,172.62061,,,,,,1
14523,14523,Moorhouse Ave near Madras St,null,-43.5398,172.64336,,,,,,1
50269,50269,Ellesmere Junction Rd near Mather Pl,null,-43.64239,172.42039,,,,,,1
51119,51119,Disraeli St near Braddon St,null,-43.54209,172.6239,,,,,,1
38956,38956,Main South Rd near Garvins Rd,null,-43.54307,172.53956,,,,,,1
39472,39472,Keyes Rd near Lonsdale St,null,-43.50703,172.72154,,,,,,1
15020,15020,Williams St near Dale St,null,-43.3739,172.66293,,,,,,1
18532,18532,Lake Terrace Rd,null,-43.49428,172.66281,,,,,,1
38145,38145,Dunbars Rd near Westlake Dr,null,-43.56699,172.55805,,,,,,1
26158,26158,Estuary Rd near Sandra St,null,-43.53021,172.73562,,,,,,1
54195,54195,Penruddock Rise near Francis Mill Grove,null,-43.58465,172.60316,,,,,,1
42646,42646,Wakefield Ave near Duncan St,null,-43.57786,172.75645,,,,,,1
43977,43977,Cranford St near Fraser St,null,-43.49019,172.6208,,,,,,1
30661,30661,Major Hornbrook Rd near Billys Trk,null,-43.56162,172.71646,,,,,,1
55046,55046,Jones Rd near Dawsons Rd,null,-43.5599,172.4576,,,,,,1
32840,32840,Ramahana Rd near Centaurus Rd,null,-43.56328,172.6552,,,,,,1
14179,14179,Parker St near Steele St,null,-43.54293,172.51573,,,,,,1
16358,16358,Carlton Mill Rd near Cheltenham St,null,-43.5216,172.62124,,,,,,1
17689,17689,Memorial Ave near Chilcombe St,null,-43.51496,172.58468,,,,,,1
17207,17207,Riccarton Rd near Bartlett St,null,-43.52891,172.61002,,,,,,1
16362,16362,Rossall St near Rhodes St,null,-43.52153,172.61722,,,,,,1
15031,15031,Main North Rd near Old Main North Rd,null,-43.36002,172.66468,,,,,,1
38132,38132,Dunbars Rd near Westlake Dr,null,-43.56703,172.5586,,,,,,1
39464,39464,Keyes Rd near Rawson St,null,-43.50483,172.71935,,,,,,1
32829,32829,Waltham Rd near Rogers St,null,-43.55216,172.64812,,,,,,1
11908,11908,Centaurus Rd near Whaka Tce,null,-43.56791,172.64629,,,,,,1
44815,44815,Buchanans Rd near Dumfries Dr,null,-43.53161,172.53276,,,,,,1
14180,14180,Colombo St near Salisbury St,null,-43.5239,172.63669,,,,,,1
42633,42633,Lyttelton Wharf,null,-43.60493,172.72096,,,,,,1
55051,55051,Jones Rd near Dawsons Rd,null,-43.56072,172.45643,,,,,,1
26162,26162,Rocking Horse Rd near Tern St,null,-43.551,172.74807,,,,,,1
11912,11912,Hoon Hay Rd near Cashmere Rd,null,-43.57371,172.61419,,,,,,1
32838,32838,Centaurus Rd near Ramahana Rd,null,-43.56281,172.65625,,,,,,1
30657,30657,Nayland St near Stoke St,null,-43.57035,172.76061,,,,,,1
50604,50604,Birmingham Dr near Craft Pl,null,-43.54355,172.58594,,,,,,1
14151,14151,Smiths City (Southbound),null,-43.53853,172.63673,,,,,,1
15480,15480,Pages Rd near Shortland St,null,-43.51996,172.69755,,,,,,1
38121,38121,Dunbars Rd near Lancewood Dr,null,-43.56794,172.56126,,,,,,1
26136,26136,Rocking Horse Rd near Whimbrels Wy,null,-43.55414,172.74943,,,,,,1
42622,42622,Duncan St near Campbell St,null,-43.57749,172.75817,,,,,,1
43954,43954,Marshland Rd near Cotton St,null,-43.4955,172.66168,,,,,,1
30642,30642,Nayland St near Hardwicke St,null,-43.57158,172.76271,,,,,,1
55067,55067,Apsley Drive,null,-43.51556,172.5465,,,,,,1
28797,28797,Bealey Ave near Madras St,null,-43.521,172.64206,,,,,,1
47074,47074,Pages Rd near Portchester St,null,-43.51349,172.7107,,,,,,1
50615,50615,Birmingham Dr near Craft Pl,null,-43.54344,172.58594,,,,,,1
15008,15008,Kaiapoi (McDonalds),null,-43.38466,172.65631,,,,,,1
18521,18521,Marshland Rd near Voss St,null,-43.49787,172.66191,,,,,,1
17670,17670,Memorial Ave near Kendal Ave,null,-43.50165,172.56312,,,,,,1
15012,15012,Williams St near Davie St,null,-43.37936,172.66221,,,,,,1
38113,38113,Dunbars Rd near Balkwell St,null,-43.56992,172.56625,,,,,,1
16343,16343,Carlton Mill Rd near Exeter St,null,-43.52095,172.62323,,,,,,1
40436,40436,Blenheim Rd near Hansons Ln,null,-43.53916,172.57355,,,,,,1
43949,43949,Marshland Rd near Hercules St,null,-43.50523,172.66271,,,,,,1
42614,42614,Main North Rd near Barnes Rd,null,-43.47263,172.61741,,,,,,1
55079,55079,Selwyn Health Hub,null,-43.5916,172.38291,,,,,,1
2854,2854,The Hub Hornby,null,-43.54216,172.52443,,,,,,1
28323,28323,Birchs Rd near Robinsons Rd,null,-43.6139,172.50864,,,,,,1
26143,26143,Estuary Rd near Jellicoe St,null,-43.53235,172.73656,,,,,,1
32817,32817,Wilsons Rd near Timbertop Ln,null,-43.55399,172.65093,,,,,,1
30635,30635,Marriner St near Richmond Hill Wlk,null,-43.56731,172.75766,,,,,,1
52802,52802,Brookside Rd near Stonebrook Dr,null,-43.60058,172.36922,,,,,,1
38580,38580,Merivale Mall,null,-43.51149,172.62105,,,,,,1
13283,13283,The Palms (Marshland Rd- vet side),null,-43.50666,172.66262,,,,,,1
50627,50627,Annex Rd near Nazareth Ave,null,-43.54331,172.58179,,,,,,1
18972,18972,New Brighton (Beresford St),null,-43.50843,172.72706,,,,,,1
19820,19820,Veitches Rd near Grampian St,null,-43.48127,172.60333,,,,,,1
17643,17643,Memorial Ave near Burnside Park,null,-43.50297,172.56523,,,,,,1
30619,30619,Main Rd near Marriner St,null,-43.56608,172.75595,,,,,,1
14133,14133,Manurere St near Wycola Ave,null,-43.5354,172.52021,,,,,,1
42605,42605,Van Asch St near Denman St,null,-43.57671,172.76074,,,,,,1
55080,55080,South Belt near Buckleys Rd,null,-43.31849,172.59428,,,,,,1
43931,43931,Marshland Rd near Mcsaveneys Rd,null,-43.48479,172.66059,,,,,,1
40427,40427,Memorial Ave near Grahams Rd,null,-43.50702,172.57168,,,,,,1
26590,26590,Buckleys Rd near Rudds Rd,null,-43.52651,172.68216,,,,,,1
30626,30626,Nayland St near Menzies St,null,-43.5729,172.76492,,,,,,1
39438,39438,Travis Road near Bower Ave,null,-43.49502,172.70996,,,,,,1
32801,32801,Waltham Rd near Austin St,null,-43.55049,172.64668,,,,,,1
38109,38109,Halswell Rd near Dunbars Rd,null,-43.57096,172.57167,,,,,,1
50636,50636,Annex Rd near Birmingham Dr,null,-43.54353,172.58289,,,,,,1
52818,52818,Brookside Rd near East Maddisons Rd,null,-43.60526,172.36472,,,,,,1
36392,36392,St Andrews Hill Rd near Marama Cres,null,-43.55785,172.71624,,,,,,1
19831,19831,Claridges Rd near Opal Pl,null,-43.47619,172.60078,,,,,,1
13296,13296,Lake Terrace Rd near Giles Pl,null,-43.49377,172.66321,,,,,,1
28306,28306,Dunbars Rd near Hindess St,null,-43.56803,172.56117,,,,,,1
55098,55098,Knights Stream Park,null,-43.57016,172.53865,,,,,,1
43920,43920,Bush St near Strachan Pl,null,-43.31524,172.59037,,,,,,1
40415,40415,Halswell Rd near Rowley Ave,null,-43.55808,172.58709,,,,,,1
20818,20818,Queenspark Dr near Bower Ave,null,-43.48231,172.71101,,,,,,1
28784,28784,Fitzgerald Ave near Alexandra St,null,-43.52281,172.65034,,,,,,1
46198,46198,Rolleston Dr near Renoir Dr,null,-43.60018,172.3759,,,,,,1
15479,15479,Pages Rd near Breezes Rd,null,-43.5178,172.70103,,,,,,1
14146,14146,Manurere St near Ranui St,null,-43.53335,172.52331,,,,,,1
38579,38579,Springfield Rd near St Albans St,null,-43.50982,172.63051,,,,,,1
50643,50643,Annex Rd near Railway,null,-43.54016,172.57736,,,,,,1
52825,52825,East Maddisons Rd near Lowes Rd,null,-43.60785,172.36577,,,,,,1
17658,17658,Aylesbury Rd near Queens Dr,null,-43.61259,172.31279,,,,,,1
40882,40882,Eastgate Mall (Buckleys Rd),null,-43.53231,172.67489,,,,,,1
13265,13265,North Pde near Averill St,null,-43.51175,172.66164,,,,,,1
36385,36385,St Andrews Hill Rd near The Brae,null,-43.55779,172.71347,,,,,,1
41733,41733,Rangiora Woodend Rd near Chinnerys Rd,null,-43.31852,172.65658,,,,,,1
43912,43912,Marshland Rd near Mcsaveneys Rd,null,-43.48481,172.6604,,,,,,1
43908,43908,The Palms (Shirley Rd),null,-43.50811,172.66154,,,,,,1
24397,24397,Gerald St near Murray Pl,null,-43.64115,172.47711,,,,,,1
26574,26574,Oram Ave near Rodney St,null,-43.51316,172.73156,,,,,,1
30603,30603,Moorhouse Ave near Manchester St,null,-43.53978,172.64139,,,,,,1
38567,38567,Springfield Rd near St Albans St,null,-43.5097,172.63015,,,,,,1
51502,51502,Corsair Dr near Grebe Pl,null,-43.54779,172.54436,,,,,,1
14114,14114,Hagley Ave near Hagley High Sch,null,-43.53732,172.62249,,,,,,1
18955,18955,Tuam St near England St,null,-43.53547,172.66299,,,,,,1
50658,50658,Annex Rd near Railway,null,-43.5404,172.57788,,,,,,1
36371,36371,Major Hornbrook Rd near Billys Trk,null,-43.56152,172.71665,,,,,,1
52839,52839,Rolleston Terminus,null,-43.61023,172.36408,,,,,,1
14122,14122,Gilberthorpes Rd near Roberts Rd,null,-43.53704,172.5177,,,,,,1
38551,38551,St Albans St near Donald Pl,null,-43.51174,172.62544,,,,,,1
20802,20802,Queenspark Dr near Donnington St,null,-43.48234,172.70764,,,,,,1
50662,50662,Hansons Ln near Arthur St,null,-43.53832,172.57456,,,,,,1
52841,52841,Brookside Rd near East Maddisons Rd,null,-43.60532,172.36482,,,,,,1
13277,13277,North Parade,null,-43.50876,172.66282,,,,,,1
16786,16786,Sawyers Arms Rd near Cotswold Ave,null,-43.47977,172.58863,,,,,,1
17636,17636,Veitches Rd near Grampian St,null,-43.48115,172.60332,,,,,,1
20576,20576,Bower Ave near Saltaire St,null,-43.49451,172.71092,,,,,,1
18257,18257,Marine Pde near Bowhill Rd,null,-43.49485,172.72639,,,,,,1
23606,23606,Colombo St near Thorrington Rd,null,-43.56469,172.63698,,,,,,1
40188,40188,Bower Ave near Pinewood Ave,null,-43.48881,172.7118,,,,,,1
43210,43210,Northwood Blvd near Mounter Ave,null,-43.45935,172.61729,,,,,,1
16078,16078,Rossall St near Glandovey Rd,null,-43.5137,172.60974,,,,,,1
41039,41039,Opawa Rd near Mary McLean Pl,null,-43.5563,172.67134,,,,,,1
24931,24931,Carmen Rd near Waterloo Rd,null,-43.537,172.52893,,,,,,1
39192,39192,New Brighton (Oram Ave),null,-43.50809,172.72961,,,,,,1
28055,28055,Blenheim Rd near Curletts Rd,null,-43.53936,172.56595,,,,,,1
11626,11626,Gamblins Rd near Ngaio St,null,-43.55907,172.6512,,,,,,1
33896,33896,Halswell Rd near O'halloran Dr,null,-43.59086,172.56844,,,,,,1
36929,36929,Aldwins Rd near Matlock St,null,-43.54177,172.66646,,,,,,1
55203,55203,Harbour View Terrace,null,-43.60446,172.69308,,,,,,1
29389,29389,Cranford St near Malvern St,null,-43.50361,172.63356,,,,,,1
33416,33416,Cashmere Rd near Kaiwara St,null,-43.57458,172.61076,,,,,,1
10775,10775,Guildford St near Heath St,null,-43.50332,172.5759,,,,,,1
40174,40174,Kaiapoi (Police Station),null,-43.38186,172.65871,,,,,,1
39185,39185,Keyes Rd,null,-43.49808,172.7169,,,,,,1
44532,44532,Oxford Rd near Fairview Briars,null,-43.30573,172.57781,,,,,,1
24949,24949,Carmen Rd,null,-43.52955,172.53321,,,,,,1
20582,20582,Bower Ave near Dick Taylor Dr,null,-43.49206,172.71129,,,,,,1
42358,42358,Bridle Path Rd near Port Hills Rd,null,-43.58206,172.70808,,,,,,1
16084,16084,Strowan Rd near Lloyd St,null,-43.51084,172.60729,,,,,,1
28064,28064,Blenheim Rd near Curletts Rd,null,-43.53947,172.56939,,,,,,1
33400,33400,Penruddock Rse near Sedgwick Wy,null,-43.57978,172.60286,,,,,,1
36917,36917,Aldwins Rd near Bass St,null,-43.53911,172.66825,,,,,,1
10308,10308,Maidstone Rd near Colina St,null,-43.51681,172.55749,,,,,,1
33883,33883,Halswell Rd near Village Lane,null,-43.5844,172.57042,,,,,,1
32552,32552,Brougham St near Albemarle St,null,-43.54758,172.64119,,,,,,1
12960,12960,Papanui Rd near Hawthorne St,null,-43.50216,172.6127,,,,,,1
10781,10781,Guildford St near Heath St,null,-43.50429,172.5774,,,,,,1
55219,55219,Barrington Mall,null,-43.55667,172.62084,,,,,,1
13811,13811,Main North Rd near Williams St,null,-43.36971,172.66392,,,,,,1
42343,42343,Head St near Dryden St,null,-43.57561,172.76558,,,,,,1
21886,21886,Aston Dr near Orlando Cres,null,-43.48315,172.71993,,,,,,1
44521,44521,Kingsbury Ave near Windsor Ct,null,-43.29724,172.58164,,,,,,1
18235,18235,Marine Pde near Hawke St,null,-43.50549,172.73037,,,,,,1
40161,40161,Wainoni Rd near Breezes Rd,null,-43.51079,172.69472,,,,,,1
17380,17380,Veitches Rd near Cavendish Rd,null,-43.48127,172.60611,,,,,,1
41018,41018,Brittan Tce near Simeon Qy,null,-43.60313,172.71181,,,,,,1
39171,39171,Keyes Rd near Sinclair St,null,-43.50169,172.71854,,,,,,1
16050,16050,Rossall St near Office Rd,null,-43.5162,172.61317,,,,,,1
11603,11603,Centaurus Rd near Torvill & Dean Ln,null,-43.5694,172.63768,,,,,,1
29362,29362,Cranford St near Berwick St,null,-43.50805,172.63756,,,,,,1
12939,12939,Lincoln Rd near Torrens Rd,null,-43.55062,172.60012,,,,,,1
55226,55226,Rocking Horse Rd near Petrel Ln,null,-43.55492,172.74959,,,,,,1
10752,10752,Whitby St near Everest St,null,-43.49866,172.56863,,,,,,1
33877,33877,Halswell Rd near Glovers Rd,null,-43.59307,172.56566,,,,,,1
36901,36901,Aldwins Rd near Harrow St,null,-43.53645,172.67026,,,,,,1
16066,16066,Rossall St near Leinster Rd,null,-43.51473,172.61184,,,,,,1
39163,39163,Bassett St near Parnwell St,null,-43.49676,172.68833,,,,,,1
44513,44513,High St near Stephen St,null,-43.30471,172.58465,,,,,,1
40157,40157,Wainoni Rd near Orrick Cres,null,-43.50682,172.70122,,,,,,1
18242,18242,New Brighton (Oram Ave),null,-43.50823,172.72994,,,,,,1
41002,41002,Tuam St near Percy St,null,-43.5355,172.65886,,,,,,1
19574,19574,Grampian St near Cavendish Rd,null,-43.47708,172.60568,,,,,,1
42336,42336,Bridle Path Rd,null,-43.58362,172.7071,,,,,,1
20569,20569,Bower Ave near Palmers Rd,null,-43.49603,172.7107,,,,,,1
33865,33865,Halswell Rd near Nicholls Rd,null,-43.58096,172.56797,,,,,,1
10768,10768,Sheffield Cres near Wairakei Rd,null,-43.49008,172.56367,,,,,,1
11619,11619,Centaurus Rd near St Martins Rd,null,-43.56195,172.65048,,,,,,1
29370,29370,Cranford St near Westminster St,null,-43.50606,172.63579,,,,,,1
12941,12941,Main North Rd near Belfast Rd,null,-43.44948,172.62935,,,,,,1
40142,40142,Wainoni Rd near Portsmouth St,null,-43.50805,172.69898,,,,,,1
21864,21864,Effingham St near Monowai Cres,null,-43.48955,172.71772,,,,,,1
41471,41471,Mairehau Rd near Putake Dr,null,-43.47956,172.69226,,,,,,1
17367,17367,Memorial Ave near Avice Hill Reserve,null,-43.49828,172.55822,,,,,,1
39159,39159,Bassett St near Vivian St,null,-43.49345,172.69078,,,,,,1
28017,28017,Creyke Rd,null,-43.52221,172.58835,,,,,,1
44509,44509,Kingsbury Ave near Regent Ave,null,-43.29733,172.58086,,,,,,1
15181,15181,Ferry Rd near Manning Pl,null,-43.54371,172.66837,,,,,,1
42327,42327,Bridle Path Rd near Ferrymead Park Dr,null,-43.56376,172.70883,,,,,,1
53061,53061,Manchester St Super Stop,null,-43.53137,172.63953,,,,,,1
10734,10734,Teesdale St near Deepdale St,null,-43.49407,172.567,,,,,,1
32523,32523,Brougham St near Wilsons Rd,null,-43.54823,172.65216,,,,,,1
33854,33854,Larsens Rd near Glovers Rd,null,-43.59304,172.56911,,,,,,1
12918,12918,Halswell Rd near Tankerville Rd,null,-43.55655,172.59009,,,,,,1
28491,28491,Fitzgerald Ave near River Rd,null,-43.52554,172.65083,,,,,,1
18219,18219,Stanmore Rd near London St,null,-43.51985,172.65645,,,,,,1
39144,39144,Keyes Rd near Gresham Tce,null,-43.5013,172.71857,,,,,,1
17379,17379,Memorial Ave near Spitfire Square,null,-43.49048,172.54582,,,,,,1
18226,18226,Marine Pde near Lonsdale St,null,-43.50238,172.729,,,,,,1
40135,40135,Cavendish Rd near Barnes Rd,null,-43.47332,172.60687,,,,,,1
24908,24908,Yaldhurst Rd near Curletts Rd,null,-43.53081,172.56868,,,,,,1
15199,15199,Main North Rd,null,-43.44004,172.63587,,,,,,1
42793,42793,Nayland St near Head St,null,-43.57403,172.76658,,,,,,1
16045,16045,Wairakei Rd near Spalding St,null,-43.49742,172.58047,,,,,,1
38291,38291,Riccarton Rd near Shand Cres,null,-43.53055,172.59057,,,,,,1
53074,53074,Manchester St Super Stop,null,-43.53077,172.63975,,,,,,1
42315,42315,Masham Rd near Kintyre Dr,null,-43.5226,172.533,,,,,,1
12925,12925,Papanui Rd near Rugby St,null,-43.51355,172.62291,,,,,,1
10747,10747,Teesdale St near Tay St,null,-43.49657,172.56891,,,,,,1
32510,32510,Opawa Rd near Hawford Rd,null,-43.55305,172.66479,,,,,,1
29358,29358,Cranford St near Winton St,null,-43.51006,172.63824,,,,,,1
32990,32990,Opawa,null,-43.55523,172.66872,,,,,,1
33849,33849,Patterson Tce near Ridder Pl,null,-43.57742,172.55663,,,,,,1
20511,20511,Queenspark Dr near Chadlington St,null,-43.47417,172.6951,,,,,,1
18675,18675,Mairehau Rd near Tapiri St,null,-43.48491,172.70149,,,,,,1
17346,17346,Memorial Ave near Burnside Park,null,-43.50247,172.56484,,,,,,1
42786,42786,Nayland St near Hardwicke St,null,-43.57158,172.76243,,,,,,1
16499,16499,Wairakei Rd near Abros Pl,null,-43.49005,172.56952,,,,,,1
38289,38289,Riccarton Rd near Paeroa St,null,-43.53073,172.58811,,,,,,1
16013,16013,Wairakei Rd near Aorangi Rd,null,-43.50377,172.5949,,,,,,1
39137,39137,Hawke St near Convoy St,null,-43.50715,172.72537,,,,,,1
29327,29327,Regent's Park Dr near Primrose Hill Ln,null,-43.47084,172.61106,,,,,,1
40126,40126,Wainoni Rd near Orrick Cres,null,-43.50662,172.70128,,,,,,1
42304,42304,Bridle Path Rd near Ferrymead Park Dr,null,-43.56657,172.70882,,,,,,1
53088,53088,Bus Interchange (Platform C),null,-43.53446,172.63771,,,,,,1
33831,33831,Oakridge St near Nicholls Rd,null,-43.57973,172.56343,,,,,,1
26297,26297,Rocking Horse Rd near Torea Ln,null,-43.55369,172.7491,,,,,,1
32506,32506,Opawa Rd near Locarno St,null,-43.55117,172.66179,,,,,,1
32988,32988,Opawa,null,-43.55394,172.66589,,,,,,1
50810,50810,Lyttelton Jetty,null,-43.60529,172.7222,,,,,,1
10710,10710,Sir William Pickering Dr near Roydvale Ave,null,-43.4985,172.56072,,,,,,1
42772,42772,Colenso St near Menzies St,null,-43.5755,172.76299,,,,,,1
18203,18203,Stanmore Rd near Warwick St,null,-43.52132,172.65647,,,,,,1
17351,17351,Memorial Ave near Roydvale Ave,null,-43.49998,172.56086,,,,,,1
53090,53090,Bus Interchange (Platform D),null,-43.53446,172.63805,,,,,,1
36098,36098,Moorhouse Ave near Manchester St,null,-43.54007,172.64128,,,,,,1
55274,55274,Huntsbury,null,-43.57426,172.65214,,,,,,1
38270,38270,Springs Rd near Amyes Rd,null,-43.55193,172.53426,,,,,,1
10723,10723,Roydvale Ave near O'connor Pl,null,-43.49676,172.5634,,,,,,1
12902,12902,Papanui Rd near Weston Rd,null,-43.50737,172.61729,,,,,,1
33820,33820,Halswell Shops,null,-43.57921,172.56617,,,,,,1
32974,32974,Opawa Rd near Cholmondeley Ave,null,-43.55178,172.66254,,,,,,1
30795,30795,Main Rd near Augusta St,null,-43.56186,172.73892,,,,,,1
28489,28489,Blenheim Rd near Curletts Rd,null,-43.53928,172.57033,,,,,,1
50823,50823,Diamond Harbour Jetty,null,-43.62337,172.73652,,,,,,1
21024,21024,Gloucester St near England St,null,-43.52979,172.66158,,,,,,1
45477,45477,Aidanfield Dr near Bibiana St,null,-43.56582,172.57434,,,,,,1
23203,23203,Hackthorne Rd near Dyers Pass Rd,null,-43.57678,172.63098,,,,,,1
25866,25866,Dunbars Rd near Balkwell St,null,-43.57025,172.56688,,,,,,1
24537,24537,Springs Rd near Dufek Cres,null,-43.54989,172.53774,,,,,,1
26714,26714,Gloucester St near England St,null,-43.52991,172.66156,,,,,,1
33018,33018,Mccarthy St near Rowley Ave,null,-43.56341,172.5887,,,,,,1
32167,32167,Major Hornbrook Rd near Muritai Tce,null,-43.56577,172.71692,,,,,,1
22351,22351,Wales St near Shamrock Pl,null,-43.57983,172.56135,,,,,,1
36521,36521,Waimairi Rd near Brulay Cts,null,-43.52708,172.57353,,,,,,1
11223,11223,Lyttelton St near Conway St,null,-43.56589,172.61487,,,,,,1
12551,12551,Lincoln Rd and Parade Ct,null,-43.54582,172.60778,,,,,,1
13882,13882,Kotare St,null,-43.52224,172.59047,,,,,,1
37853,37853,Aldwins Rd near Bass St,null,-43.53911,172.66796,,,,,,1
51249,51249,Sir William Pickering Dr,null,-43.49708,172.55864,,,,,,1
54755,54755,West Belt,null,-43.29631,172.57741,,,,,,1
13404,13404,Woodbury St near Glenharrow Ave,null,-43.51799,172.54911,,,,,,1
10377,10377,Kedleston Dr near Hatfield Pl,null,-43.51139,172.54636,,,,,,1
14736,14736,Moorhouse Ave near Washington Wy,null,-43.54008,172.64484,,,,,,1
53429,53429,Williams St (Mobil Kaiapoi),null,-43.38911,172.65421,,,,,,1
23219,23219,Hackthorne Rd near Stambridge Pl,null,-43.57735,172.62639,,,,,,1
10383,10383,Maidstone Rd near Derenzy Pl,null,-43.51615,172.55392,,,,,,1
32151,32151,Major Hornbrook Rd near Rockview Pl,null,-43.57083,172.71854,,,,,,1
24544,24544,Bentley St near Cutts Rd,null,-43.51976,172.54339,,,,,,1
26722,26722,Kippenberger Ave near East Belt,null,-43.30267,172.60137,,,,,,1
22367,22367,Barrington St near Conway St,null,-43.56106,172.62325,,,,,,1
23699,23699,Wilsons Rd,null,-43.56203,172.65707,,,,,,1
46318,46318,Mandeville St near Kyle St,null,-43.5324,172.6066,,,,,,1
51254,51254,Riccarton Ave (Hospital),null,-43.53371,172.62196,,,,,,1
54764,54764,West Belt,null,-43.29646,172.57728,,,,,,1
33485,33485,Sedgwick Way near Woodside Common,null,-43.58021,172.60422,,,,,,1
13895,13895,Williams St near Cass St,null,-43.38046,172.66099,,,,,,1
14743,14743,Park Tce near Peterborough St,null,-43.52539,172.62807,,,,,,1
21030,21030,Gloucester St,null,-43.52979,172.66656,,,,,,1
53438,53438,Kaiapoi High School,null,-43.38659,172.64584,,,,,,1
11234,11234,Frankleigh St near Alvarez Pl,null,-43.55914,172.61941,,,,,,1
44131,44131,Rocking Horse Rd near Penguin St,null,-43.5456,172.74519,,,,,,1
13415,13415,Staveley St,null,-43.51902,172.55353,,,,,,1
12567,12567,Lincoln Rd near Nairn St,null,-43.54823,172.60369,,,,,,1
46789,46789,Pages Rd near Woodham Rd,null,-43.52562,172.68349,,,,,,1
24516,24516,Cutts Rd near Yaldhurst Rd,null,-43.52246,172.54253,,,,,,1
20152,20152,Hills Rd near Gresford St,null,-43.51638,172.6516,,,,,,1
19162,19162,Harewood Rd near Farrington Ave,null,-43.48934,172.59095,,,,,,1
33471,33471,Penruddock Rse near Highcrest Hts,null,-43.58077,172.60056,,,,,,1
22333,22333,Patterson Tce near Ridder Pl,null,-43.57752,172.55667,,,,,,1
24996,24996,Yaldhurst Rd near Racecourse Rd,null,-43.52631,172.55403,,,,,,1
25845,25845,James St near Boundary Rd,null,-43.6368,172.48851,,,,,,1
54772,54772,Smith Street near Raven St N,null,-43.37647,172.65178,,,,,,1
53440,53440,Corsair Dr - The Landing,null,-43.55341,172.55635,,,,,,1
11206,11206,Aldwins Rd near Harrow St,null,-43.53719,172.66934,,,,,,1
32146,32146,St Martins Shops,null,-43.55743,172.65359,,,,,,1
14715,14715,Riccarton Ave,null,-43.53146,172.61625,,,,,,1
13869,13869,Kotare St near Roa Rd,null,-43.52289,172.59478,,,,,,1
10354,10354,Merrin St near Hawthornden Rd,null,-43.50883,172.55153,,,,,,1
11688,11688,Centaurus Rd near Major Aitken Dr,null,-43.57003,172.6444,,,,,,1
24528,24528,Springs Rd near Sioux Ave,null,-43.54864,172.54044,,,,,,1
41087,41087,Ti Rakau Dr near Shearwater Dr,null,-43.54903,172.69481,,,,,,1
26705,26705,Oram Ave near Hood St,null,-43.5105,172.73053,,,,,,1
11690,11690,Centaurus Rd near Austin Kirk Ln,null,-43.56523,172.64805,,,,,,1
44597,44597,High St near Weston Pl,null,-43.30514,172.5823,,,,,,1
22346,22346,Patterson Tce near Rempstone Dr,null,-43.57515,172.55269,,,,,,1
45449,45449,Linwood Ave near Kidbrooke St,null,-43.54474,172.69253,,,,,,1
19170,19170,Bishopdale Mall (Harewood Rd),null,-43.48793,172.58753,,,,,,1
14727,14727,Oakridge St near Nicholls Rd,null,-43.57975,172.56326,,,,,,1
32133,32133,Fendalton Rd near Stratford St,null,-43.52005,172.60444,,,,,,1
53455,53455,The Runway near Deal St,null,-43.55331,172.55533,,,,,,1
54786,54786,Smith Street near Raven St N,null,-43.37645,172.65139,,,,,,1
51277,51277,Sir William Pickering near Sir Gil Simpson,null,-43.49192,172.56105,,,,,,1
36972,36972,St Martins Rd near Wilding St,null,-43.55498,172.65313,,,,,,1
10365,10365,Kedleston Dr near Audley Gate,null,-43.51088,172.5485,,,,,,1
54304,54304,Darfield,null,-43.4906,172.10665,,,,,,1
12546,12546,Bealey Ave,null,-43.52025,172.62751,,,,,,1
13876,13876,Williams St near Davie St,null,-43.37934,172.66204,,,,,,1
23647,23647,Hay St near Mcgregors Rd,null,-43.53274,172.68533,,,,,,1
20134,20134,Hills Rd near Warden St,null,-43.50988,172.65156,,,,,,1
44584,44584,Ashley St near Duke St,null,-43.29777,172.59492,,,,,,1
19143,19143,Harewood Rd near Marble Wood Dr,null,-43.49428,172.60249,,,,,,1
44108,44108,Addington Village,null,-43.54387,172.61117,,,,,,1
22314,22314,Barrington St near Strauss Pl,null,-43.55921,172.62118,,,,,,1
24977,24977,Yaldhurst Rd near Withells Rd,null,-43.52446,172.54793,,,,,,1
51283,51283,Sir William Pickering Dr,null,-43.49635,172.55886,,,,,,1
54793,54793,Kingsbury Ave near Melford Cl,null,-43.2965,172.58633,,,,,,1
32122,32122,University - Creyke Rd,null,-43.52109,172.58473,,,,,,1
53464,53464,The Runway near Deal St,null,-43.55306,172.55533,,,,,,1
12994,12994,Halswell Rd near Coppell Pl,null,-43.5545,172.59356,,,,,,1
10331,10331,Avonhead Mall,null,-43.511,172.55621,,,,,,1
54315,54315,Darfield Town Centre,null,-43.48989,172.11395,,,,,,1
36964,36964,St Martins Rd near Ensors Rd,null,-43.55319,172.65721,,,,,,1
41073,41073,Opawa Rd near Grange St,null,-43.55854,172.67298,,,,,,1
12514,12514,Papanui Rd near Webb St,null,-43.51536,172.62397,,,,,,1
28093,28093,Blenheim Rd near Watts Rd,null,-43.53903,172.55882,,,,,,1
33459,33459,Penruddock Rse near Pembridge Ln,null,-43.57919,172.60267,,,,,,1
19158,19158,Harewood Rd near St James Ave,null,-43.49561,172.60507,,,,,,1
44578,44578,Kaiapoi High School,null,-43.38666,172.64564,,,,,,1
45420,45420,Bluestone Dr near Alpine View,null,-43.47318,172.67327,,,,,,1
24500,24500,Yaldhurst Rd near Ludecke Pl,null,-43.53008,172.56633,,,,,,1
25832,25832,Springs Rd near Birchs Rd,null,-43.58402,172.50919,,,,,,1
32599,32599,Greers Rd near Ardmore Pl,null,-43.49132,172.59274,,,,,,1
10349,10349,Avonhead Mall,null,-43.50953,172.55381,,,,,,1
14704,14704,Christchurch Hospital Main Stop WB,null,-43.5352,172.62671,,,,,,1
51296,51296,Bush St near Coates Pl,null,-43.31215,172.5896,,,,,,1
33444,33444,Penruddock Rse near Croftfield Pl,null,-43.57718,172.60377,,,,,,1
32114,32114,University - Creyke Rd,null,-43.52103,172.5849,,,,,,1
53472,53472,Hawke St near Keppel St,null,-43.50605,172.72955,,,,,,1
42391,42391,Heathcote,null,-43.57721,172.71088,,,,,,1
11674,11674,Gamblins Rd near Ngaio St,null,-43.55868,172.65182,,,,,,1
36955,36955,Ensors Rd,null,-43.55101,172.65878,,,,,,1
13853,13853,Williams St near Dale St,null,-43.37365,172.66285,,,,,,1
44566,44566,Ashley St near Duke St,null,-43.29797,172.5948,,,,,,1
42389,42389,Bridle Path Rd near Hammerton Ln,null,-43.5715,172.71077,,,,,,1
19127,19127,Harewood Rd near Wooldridge Rd,null,-43.48056,172.56768,,,,,,1
20595,20595,Whitmore St near Bealey Ave,null,-43.52029,172.65042,,,,,,1
18274,18274,Burwood Rd near Stanford St,null,-43.48483,172.68186,,,,,,1
45892,45892,Halswell Junction Rd near Foremans Rd,null,-43.54348,172.50729,,,,,,1
25809,25809,Springs Rd near Boston Ave,null,-43.55554,172.53143,,,,,,1
41056,41056,Bridle Path Rd near Rollin St,null,-43.57889,172.71014,,,,,,1
32581,32581,Hills Rd near Dudley St,null,-43.51392,172.65156,,,,,,1
24954,24954,Barbadoes St near Purchas St,null,-43.51839,172.64587,,,,,,1
32105,32105,Ferry Rd near Radley St,null,-43.54707,172.67855,,,,,,1
10799,10799,Guildford St near Wayside Ave,null,-43.50513,172.58013,,,,,,1
53486,53486,Hawke St near Keppel St,null,-43.50626,172.72891,,,,,,1
36940,36940,Ensors Rd and Sullivan Ave,null,-43.54718,172.66169,,,,,,1
10312,10312,Withells Rd near Gainford St,null,-43.51425,172.55429,,,,,,1
11642,11642,Centaurus Rd near Woodlau Rse,null,-43.56745,172.64684,,,,,,1
12973,12973,Main North Rd near Cranford St,null,-43.4866,172.61598,,,,,,1
33437,33437,Cashmere Rd near Mavin Rd,null,-43.57427,172.61367,,,,,,1
28072,28072,Blenheim Rd near Hansons Ln,null,-43.53936,172.57345,,,,,,1
19136,19136,Harewood Rd near Nunweek Blvd,null,-43.48206,172.5738,,,,,,1
18288,18288,The Palms (Marshland Rd mall side),null,-43.50727,172.66292,,,,,,1
46736,46736,Brittan Tce near Seaview Tce,null,-43.60484,172.70973,,,,,,1
54343,54343,Pegasus Main St near Motu Qy,null,-43.3113,172.6952,,,,,,1
11657,11657,Howard St near Simeon St,null,-43.5496,172.61602,,,,,,1
28086,28086,Blenheim Rd near Watts Rd,null,-43.53916,172.56529,,,,,,1
53493,53493,Williams St (Mobil Kaiapoi),null,-43.38929,172.65391,,,,,,1
36938,36938,Ensors Rd near Charles St,null,-43.54486,172.66336,,,,,,1
12505,12505,Papanui Rd near St Albans St,null,-43.51384,172.62289,,,,,,1
13830,13830,Williams St near Sims Rd,null,-43.37538,172.66267,,,,,,1
42370,42370,Bridle Path Rd,null,-43.58386,172.70679,,,,,,1
10320,10320,Withells Rd near Apsley Dr,null,-43.51267,172.55522,,,,,,1
33428,33428,Cashmere Rd - Francis Res,null,-43.57521,172.60483,,,,,,1
12987,12987,Papanui Rd near Heaton St,null,-43.50886,172.61864,,,,,,1
40190,40190,Bower Ave near Dick Taylor Dr,null,-43.49236,172.71141,,,,,,1
36482,36482,Soleares Ave near Mt Pleasant Rd,null,-43.56706,172.72053,,,,,,1
47137,47137,Lincoln Rd near Hazeldean Rd,null,-43.54156,172.61535,,,,,,1
11186,11186,Kerrs Rd,null,-43.52558,172.68127,,,,,,1
40980,40980,Wairakei Rd near Kendal Ave,null,-43.49629,172.57833,,,,,,1
40502,40502,Milton St near Strickland St,null,-43.55229,172.63013,,,,,,1
41831,41831,Brittan Tce near Voelas Rd,null,-43.60337,172.71171,,,,,,1
24015,24015,Barbadoes St near Bealey Ave,null,-43.52034,172.64579,,,,,,1
26672,26672,Gloucester St near Stanmore Rd,null,-43.52989,172.65669,,,,,,1
36005,36005,Major Hornbrook Rd near Billys Trk,null,-43.56328,172.71616,,,,,,1
23165,23165,Princess Margaret Hospital,null,-43.57,172.62067,,,,,,1
12034,12034,Main North Rd near Richill St,null,-43.44521,172.63216,,,,,,1
39515,39515,Shirley Rd near Quinns Rd,null,-43.50799,172.65909,,,,,,1
51644,51644,Inwoods Rd near Jade Pl,null,-43.48116,172.69902,,,,,,1
53821,53821,Doyleston,null,-43.74783,172.32784,,,,,,1
38669,38669,Idris Rd near Fendalton Rd,null,-43.51876,172.60113,,,,,,1
14216,14216,Bealey Ave,null,-43.5227,172.63669,,,,,,1
15548,15548,Ferry Rd near Oak St,null,-43.54922,172.68264,,,,,,1
11193,11193,Lyttelton St near Rose St,null,-43.56812,172.61548,,,,,,1
15553,15553,Ferry Rd near Charlesworth St,null,-43.55573,172.69484,,,,,,1
13375,13375,Clyde Rd near Fendalton Rd,null,-43.51614,172.59083,,,,,,1
38653,38653,Straven Rd near Rochdale St,null,-43.52268,172.60137,,,,,,1
23177,23177,Hackthorne Rd near Stambridge Pl,null,-43.57753,172.62619,,,,,,1
26686,26686,Estuary Rd near Halsey St,null,-43.53619,172.73823,,,,,,1
24027,24027,Middlepark Rd near Epsom Rd,null,-43.53641,172.55179,,,,,,1
40979,40979,Highsted Rd near Glenmore Ave,null,-43.47717,172.59675,,,,,,1
26209,26209,Rocking Horse Rd,null,-43.55585,172.74998,,,,,,1
28869,28869,Main Rd near Te Awakura Tce,null,-43.55736,172.71122,,,,,,1
50322,50322,Ellesmere Junction Rd near Leeston Rd,null,-43.64313,172.42571,,,,,,1
39504,39504,Shirley Rd near Quinns Rd,null,-43.50814,172.65754,,,,,,1
12047,12047,Main North Rd near Donegal St,null,-43.44697,172.63099,,,,,,1
53832,53832,Doyleston,null,-43.74793,172.32788,,,,,,1
19910,19910,Veitches Rd near Cavendish Rd,null,-43.48138,172.60582,,,,,,1
51659,51659,Inwoods Rd near Jade Pl,null,-43.48078,172.69945,,,,,,1
11164,11164,Eastgate Mall (Buckleys Rd),null,-43.53199,172.67489,,,,,,1
12010,12010,N Avon Rd near Petrie St,null,-43.51751,172.65701,,,,,,1
40967,40967,Ferry Rd near Settlers Cres,null,-43.55794,172.70462,,,,,,1
23149,23149,Hackthorne Rd near Gwynfa Ave,null,-43.57426,172.62481,,,,,,1
41812,41812,Norwich Quay near Canterbury St,null,-43.60374,172.72096,,,,,,1
28830,28830,Bealey Ave,null,-43.52072,172.64019,,,,,,1
51663,51663,Bower Ave near Crofts Ln,null,-43.47797,172.71082,,,,,,1
22295,22295,Lyttelton St near Hennessy Pl,null,-43.56,172.61212,,,,,,1
24473,24473,Racecourse Rd near O'briens Rd,null,-43.5331,172.54703,,,,,,1
15524,15524,Ferry Rd near Tilford St,null,-43.54608,172.67492,,,,,,1
14677,14677,St Asaph St near Fitzgerald Ave,null,-43.53644,172.64973,,,,,,1
50333,50333,Lowes Rd near Rembrandt Dr,null,-43.60353,172.37972,,,,,,1
53845,53845,Springston,null,-43.64432,172.42613,,,,,,1
44080,44080,Rowley Ave near Salmond St,null,-43.56505,172.58724,,,,,,1
38648,38648,Idris Rd near Wroxton Tce,null,-43.51658,172.60235,,,,,,1
13347,13347,Main North Rd near Manse Pl,null,-43.47723,172.61674,,,,,,1
13352,13352,Main North Rd near the lakes,null,-43.35645,172.66456,,,,,,1
14683,14683,Moorhouse Ave near Selwyn St,null,-43.53982,172.6224,,,,,,1
14200,14200,Buchanans Rd near Racecourse Rd,null,-43.5354,172.54467,,,,,,1
11172,11172,Buckleys Rd near Butterfield Ave,null,-43.5284,172.67945,,,,,,1
38630,38630,Idris Rd near Wroxton Tce,null,-43.51656,172.60213,,,,,,1
28848,28848,Main Rd near Wakatu Ave,null,-43.56501,172.7418,,,,,,1
51671,51671,Bower Ave near Crofts Ln,null,-43.47762,172.71081,,,,,,1
23154,23154,Hackthorne Rd near Cashmere Rd,null,-43.57185,172.62437,,,,,,1
12023,12023,Burwood Rd near Clarevale St,null,-43.49064,172.68391,,,,,,1
54701,54701,Oxford Road near Charles Upham Dr,null,-43.30622,172.57313,,,,,,1
50346,50346,Lowes Rd near Tennyson St,null,-43.60143,172.38455,,,,,,1
28811,28811,Bealey Ave near Madras St,null,-43.52072,172.643,,,,,,1
22276,22276,Halswell Rd near Village Lane,null,-43.58411,172.56994,,,,,,1
24456,24456,Emmett St near Riselaw St,null,-43.5057,172.65504,,,,,,1
40946,40946,Tuam St near Nursery Rd,null,-43.53539,172.65884,,,,,,1
26638,26638,Pages Rd near Farnborough St,null,-43.51216,172.71391,,,,,,1
50351,50351,Jones Rd near Weedons Ross Rd,null,-43.57862,172.40908,,,,,,1
23120,23120,Hackthorne Rd near Lowick Ave,null,-43.57689,172.62451,,,,,,1
51685,51685,Aston Dr near Torres Pines,null,-43.47529,172.71499,,,,,,1
13323,13323,N Avon Rd near Chrystal St,null,-43.51752,172.65842,,,,,,1
12477,12477,Marshland Rd near Pagoda St,null,-43.49866,172.66183,,,,,,1
10298,10298,Maidstone Rd near Highfield Pl,null,-43.51696,172.56073,,,,,,1
38624,38624,Glandovey Rd,null,-43.51417,172.60512,,,,,,1
37778,37778,Gayhurst Rd near Coopers Rd,null,-43.51036,172.67357,,,,,,1
54717,54717,Oxford Road near Oakwood Dr,null,-43.30621,172.5741,,,,,,1
12483,12483,Papanui Rd near Murray Pl,null,-43.51023,172.6199,,,,,,1
15991,15991,Northwood Blvd near Main North Rd,null,-43.46042,172.62166,,,,,,1
25312,25312,Middlepark Rd near Takaro Ave,null,-43.53423,172.55496,,,,,,1
28824,28824,Main Rd near Celia St,null,-43.55995,172.73648,,,,,,1
51692,51692,Aston Dr near Torres Pines,null,-43.47545,172.7152,,,,,,1
24460,24460,Buchanans Rd near Racecourse Rd,null,-43.53549,172.54542,,,,,,1
51212,51212,Roydvale Ave near Highwood Ln,null,-43.49263,172.56487,,,,,,1
32076,32076,Innes Rd near Hills Rd,null,-43.49537,172.6477,,,,,,1
23131,23131,Hackthorne Rd near Lady Polson Ln,null,-43.57596,172.6244,,,,,,1
26640,26640,Bush St near South Blt,null,-43.31849,172.59117,,,,,,1
47562,47562,Hussey Rd near Millpark Tce,null,-43.45894,172.60952,,,,,,1
50367,50367,Jones Rd near Hoskyns Rd,null,-43.58714,172.38587,,,,,,1
14665,14665,St Asaph St near Barbadoes St,null,-43.53645,172.64519,,,,,,1
53878,53878,Springston,null,-43.64403,172.42641,,,,,,1
15511,15511,Ferrymead Shops,null,-43.55735,172.70233,,,,,,1
54729,54729,Rangiora (Ashley Street),null,-43.30274,172.59599,,,,,,1
24439,24439,Quinns Rd near Hercules St,null,-43.50559,172.658,,,,,,1
37750,37750,Aldwins Rd near Edmond St,null,-43.54089,172.66674,,,,,,1
23584,23584,Colombo St near Nutfield Ln,null,-43.56188,172.63687,,,,,,1
33395,33395,Milton St near Drummond St,null,-43.5507,172.63548,,,,,,1
19087,19087,Highsted Rd,null,-43.48118,172.59344,,,,,,1
40922,40922,Hussey Rd near Springvale Gdns,null,-43.46245,172.59192,,,,,,1
25768,25768,Springs Rd near Henry Wigram Dr,null,-43.54473,172.54416,,,,,,1
38607,38607,Heaton St near Glandovey Rd,null,-43.51298,172.61098,,,,,,1
11129,11129,Rose St near Hoon Hay Rd,null,-43.56933,172.61165,,,,,,1
32069,32069,Lake Terrace Rd near Lakewood Dr,null,-43.49471,172.67651,,,,,,1
40914,40914,Main North Rd near Sturrocks Rd,null,-43.47467,172.61724,,,,,,1
53884,53884,Irwell,null,-43.70461,172.36115,,,,,,1
53401,53401,Island Rd near Barnard St,null,-43.38426,172.63929,,,,,,1
13784,13784,Hawthornden Rd near Bellingham Pl,null,-43.51012,172.55017,,,,,,1
50379,50379,Jones Rd near Hoskyns Rd,null,-43.58698,172.38597,,,,,,1
10279,10279,Maidstone Rd,null,-43.51686,172.56448,,,,,,1
13306,13306,Marshland Rd near Alma Pl,null,-43.50502,172.66247,,,,,,1
54738,54738,West Belt near Arlington Boulevard,null,-43.29417,172.57688,,,,,,1
26629,26629,Pages Rd,null,-43.51096,172.7168,,,,,,1
10280,10280,Maidstone Rd near Westmont St,null,-43.51671,172.56528,,,,,,1
28807,28807,Main Rd near Raekura Pl,null,-43.55896,172.73519,,,,,,1
36891,36891,Aldwins Rd near Marlborough St,null,-43.53442,172.67232,,,,,,1
15970,15970,Northwood,null,-43.4584,172.61527,,,,,,1
25775,25775,Springs Rd near Boston Ave,null,-43.55532,172.53141,,,,,,1
33382,33382,Milton St near Selwyn St,null,-43.55384,172.62777,,,,,,1
22269,22269,Nottingham Ave near Arkwright Pl,null,-43.57385,172.5574,,,,,,1
19094,19094,Veitches Rd near Kimberley St,null,-43.48206,172.59534,,,,,,1
50380,50380,Kissel St near Banks St,null,-43.55115,172.47431,,,,,,1
51231,51231,Roydvale Ave near Homersham Pl,null,-43.49226,172.56482,,,,,,1
24441,24441,Barbadoes St near Purchas St,null,-43.51883,172.64604,,,,,,1
54740,54740,West Belt near Arlington Blvd,null,-43.29407,172.57671,,,,,,1
12465,12465,Marshland Rd near Cotton St,null,-43.49563,172.6615,,,,,,1
13797,13797,Main North Rd,null,-43.36358,172.66367,,,,,,1
13310,13310,North Pde near Medway St,null,-43.51491,172.65989,,,,,,1
53897,53897,Corsair Dr near Keene St,null,-43.55196,172.55398,,,,,,1
37745,37745,Riccarton Rd near Field Tce,null,-43.53117,172.58093,,,,,,1
53417,53417,Island Rd near Barnard St,null,-43.38405,172.63922,,,,,,1
18652,18652,Mairehau Rd near Daytona Pl,null,-43.48045,172.69571,,,,,,1
17322,17322,Memorial Ave near Grahams Rd,null,-43.50665,172.5715,,,,,,1
38262,38262,Amyes Rd near Shands Rd,null,-43.5464,172.5265,,,,,,1
36080,36080,Moorhouse Ave near Durham St South,null,-43.53978,172.63308,,,,,,1
50708,50708,Withells Rd near Woodbury St,null,-43.51726,172.55239,,,,,,1
33808,33808,Wales St near Shamrock Pl,null,-43.57974,172.56136,,,,,,1
16475,16475,Wairakei Rd near Sheffield Cres,null,-43.48916,172.56449,,,,,,1
19981,19981,Cranford St near Westminster St,null,-43.50679,172.63664,,,,,,1
41437,41437,Papanui Rd near Holly Rd,null,-43.51721,172.62532,,,,,,1
29304,29304,Lowry Ave near Denniston Cres,null,-43.46908,172.62388,,,,,,1
40103,40103,Wainoni Rd near Hampshire St,null,-43.50489,172.70456,,,,,,1
43619,43619,Southern Park and Ride (South Belt),null,-43.31816,172.59577,,,,,,1
39591,39591,Bassett St near Parnwell St,null,-43.49702,172.68846,,,,,,1
30782,30782,St Andrews Hill Rd near The Brae,null,-43.55797,172.71317,,,,,,1
55165,55165,Wooldridge Rd,null,-43.48492,172.56742,,,,,,1
26278,26278,Estuary Rd near Sandra St,null,-43.53025,172.7358,,,,,,1
50712,50712,Withells Rd near Staveley St,null,-43.51739,172.55248,,,,,,1
24091,24091,Kensington Ave near Westminster St,null,-43.50118,172.64195,,,,,,1
33812,33812,Wales St near Oldham Cres,null,-43.57762,172.55915,,,,,,1
15152,15152,Linwood Ave near Cashel St,null,-43.53312,172.67223,,,,,,1
17333,17333,Memorial Ave near Grangewood Ln,null,-43.50415,172.56754,,,,,,1
39100,39100,Bassett St near Tobin Ln,null,-43.49906,172.68798,,,,,,1
16481,16481,Wairakei Rd near Abros Pl,null,-43.49031,172.57035,,,,,,1
20507,20507,Broadhaven Ave near Queenspark Dr,null,-43.47173,172.69705,,,,,,1
29315,29315,Regent's Park Dr near Aylsham Ln,null,-43.47057,172.60899,,,,,,1
42755,42755,Duncan St near Truro St,null,-43.5774,172.75766,,,,,,1
29793,29793,Blenheim Rd near Penn Pl,null,-43.53891,172.57956,,,,,,1
55177,55177,Barbadoes St near Ferry Rd,null,-43.53751,172.64579,,,,,,1
26284,26284,Rocking Horse Rd near Tern St,null,-43.55143,172.74813,,,,,,1
10706,10706,Sir William Pickering Dr (NB),null,-43.49479,172.55915,,,,,,1
39589,39589,Travis Rd near Atlantis St,null,-43.49365,172.70353,,,,,,1
32957,32957,Opawa Rd near Manatu Ln,null,-43.54982,172.65819,,,,,,1
19999,19999,Cavendish Rd near Sturrocks Rd,null,-43.47397,172.60695,,,,,,1
30776,30776,Major Hornbrook Rd near Billys Trk,null,-43.56307,172.71602,,,,,,1
18668,18668,Mairehau Rd near Inwoods Rd,null,-43.48231,172.699,,,,,,1
17783,17783,Tennyson St near Michelangelo Dr,null,-43.59871,172.38567,,,,,,1
42740,42740,Nayland St near Menzies St,null,-43.57294,172.76473,,,,,,1
52904,52904,Victoria St near Dorset St,null,-43.52198,172.62875,,,,,,1
14271,14271,St Asaph St near Montreal St,null,-43.53649,172.63018,,,,,,1
38243,38243,Amyes Rd near Branston St,null,-43.54737,172.52764,,,,,,1
15123,15123,Main North Rd near Cunliffe Rd,null,-43.46837,172.61776,,,,,,1
12099,12099,Mairehau Rd near Inwoods Rd,null,-43.48224,172.69919,,,,,,1
37399,37399,Colombo St near Remuera Ave,null,-43.56611,172.63652,,,,,,1
20958,20958,Broadhaven Ave near Inwoods Rd,null,-43.47492,172.70257,,,,,,1
36067,36067,Mt Pleasant Rd near Belleview Tce,null,-43.57029,172.7211,,,,,,1
41896,41896,Cranford St near Malvern St,null,-43.50406,172.63416,,,,,,1
28436,28436,Madeley Rd near Major Hornbrook Rd,null,-43.57184,172.72049,,,,,,1
55183,55183,Selwyn Health Hub,null,-43.59155,172.38303,,,,,,1
41416,41416,Pak n Save Wainoni,null,-43.51225,172.692,,,,,,1
26250,26250,Rocking Horse Rd near Plover St,null,-43.54851,172.74681,,,,,,1
47192,47192,Aidanfield Dr near Bibiana St,null,-43.56596,172.57423,,,,,,1
18634,18634,Lake Terrace Rd near Fairway Dr,null,-43.49465,172.66545,,,,,,1
17305,17305,Veitches Rd near Northfield Rd,null,-43.48136,172.60052,,,,,,1
32942,32942,Huntsbury Ave near Ramahana Rd,null,-43.56423,172.65323,,,,,,1
24070,24070,Craven St near Algidus St,null,-43.53366,172.5584,,,,,,1
20962,20962,Bower Ave near New Brighton Rd,null,-43.50304,172.70966,,,,,,1
19975,19975,Cavendish Rd near Northcote Rd,null,-43.48366,172.60611,,,,,,1
52915,52915,Hereford St near Montreal St,null,-43.53197,172.63101,,,,,,1
39562,39562,Rookwood Ave near Marriotts Rd,null,-43.49638,172.71472,,,,,,1
42738,42738,Wakefield Ave near Paisley St,null,-43.57913,172.75625,,,,,,1
55196,55196,Bayview Place,null,-43.6038,172.6907,,,,,,1
36051,36051,Ara Institute,null,-43.53678,172.64422,,,,,,1
29772,29772,Grimseys Rd near Lowry Ave,null,-43.46882,172.62786,,,,,,1
42729,42729,Van Asch St near Denman St,null,-43.57651,172.76073,,,,,,1
24089,24089,Westminster St near Flockton St,null,-43.50326,172.64293,,,,,,1
26266,26266,Estuary Rd near Jellicoe St,null,-43.53234,172.73671,,,,,,1
28443,28443,Major Hornbrook Rd near Belleview Tce,null,-43.56938,172.7163,,,,,,1
38236,38236,Amyes Rd near Branston St,null,-43.54727,172.52775,,,,,,1
32935,32935,Huntsbury Ave,null,-43.56669,172.65254,,,,,,1
16468,16468,Wairakei Rd near Breens Rd,null,-43.49206,172.57345,,,,,,1
30753,30753,St Andrews Hill Rd near Marama Cres,null,-43.55834,172.71745,,,,,,1
18647,18647,Marshland Rd near Amos Pl,null,-43.50146,172.66229,,,,,,1
15582,15582,Ferry Rd near Catherine St,null,-43.55028,172.6847,,,,,,1
18610,18610,Marshland Rd near Hammersley Ave,null,-43.50327,172.66248,,,,,,1
52927,52927,Rolleston Ave near Gloucester St,null,-43.53019,172.62768,,,,,,1
32919,32919,Huntsbury Ave near Vista Pl,null,-43.57044,172.65432,,,,,,1
41877,41877,Cranford St near Winton St,null,-43.51088,172.63839,,,,,,1
36046,36046,Fitzgerald Ave near Harvey Tce,null,-43.52514,172.65137,,,,,,1
24058,24058,Emmett St near Jebson St,null,-43.5041,172.65559,,,,,,1
26232,26232,Estuary Rd near Ebbtide St,null,-43.53745,172.73877,,,,,,1
32926,32926,Huntsbury Ave near Aotea Tce,null,-43.56768,172.65319,,,,,,1
15106,15106,Main North Rd near Momorangi Cres,null,-43.48184,172.61666,,,,,,1
14259,14259,Epsom Rd near Middlepark Rd,null,-43.53658,172.55079,,,,,,1
38227,38227,Amyes Rd near Witham St,null,-43.54937,172.53013,,,,,,1
30748,30748,Major Hornbrook Rd near Muritai Tce,null,-43.5662,172.71669,,,,,,1
39558,39558,Keyes Rd,null,-43.49796,172.71661,,,,,,1
51600,51600,Hereford St near Barbadoes St,null,-43.53208,172.64498,,,,,,1
17765,17765,Tennyson St near Rolleston Dr,null,-43.59703,172.38434,,,,,,1
52936,52936,Madras St Terminus,null,-43.5387,172.64258,,,,,,1
38695,38695,Riccarton Rd near Newnham Tce,null,-43.53164,172.57641,,,,,,1
14263,14263,St Asaph St near Colombo St,null,-43.53647,172.63568,,,,,,1
36033,36033,Gloucester St near Fitzgerald Ave,null,-43.52977,172.64867,,,,,,1
42717,42717,Hendersons Rd near Rowley Ave,null,-43.56548,172.58501,,,,,,1
24062,24062,Buchanans Rd near Peebles Dr,null,-43.53444,172.54194,,,,,,1
30730,30730,St Andrews Hill Rd near Major Hornbrook Rd,null,-43.55924,172.71762,,,,,,1
26245,26245,Rocking Horse Rd near Penguin St,null,-43.54563,172.74535,,,,,,1
52943,52943,Madras St near Southwark St,null,-43.537,172.64258,,,,,,1
38215,38215,Amyes Rd near Witham St,null,-43.54953,172.53054,,,,,,1
18623,18623,Lake Terrace Rd near De Ville Pl,null,-43.49924,172.68212,,,,,,1
17777,17777,Main South Rd near Chalmers St,null,-43.54391,172.52141,,,,,,1
51616,51616,Hereford St near Fitzgerald Ave,null,-43.53207,172.65004,,,,,,1
13381,13381,Staveley St,null,-43.51903,172.5522,,,,,,1
38682,38682,Ilam Rd near Rudleigh Ave,null,-43.53043,172.57994,,,,,,1
12052,12052,Main North Rd near Tuckers Rd,null,-43.47954,172.61655,,,,,,1
24036,24036,Middlepark Rd near Takaro Ave,null,-43.53313,172.55606,,,,,,1
26213,26213,Southshore,null,-43.55645,172.75034,,,,,,1
36022,36022,Moorhouse Ave near Hagley Ave,null,-43.53985,172.61917,,,,,,1
42701,42701,Head St near Wiggins St,null,-43.57527,172.76573,,,,,,1
23183,23183,Dyers Pass Rd and Hackthorne Rd,null,-43.57698,172.63072,,,,,,1
26693,26693,Union St,null,-43.51818,172.73079,,,,,,1
14237,14237,Racecourse Rd near O'briens Rd,null,-43.53403,172.54554,,,,,,1
38204,38204,Amyes Rd near Trevor St,null,-43.55132,172.53277,,,,,,1
30724,30724,St Andrews Hill Rd near Marama Cres,null,-43.55793,172.71606,,,,,,1
39536,39536,New Brighton Rd near Lake Terrace Rd,null,-43.50018,172.68516,,,,,,1
32903,32903,Huntsbury Ave near Aotea Tce,null,-43.56784,172.65302,,,,,,1
52958,52958,Tuam St near Madras St,null,-43.53523,172.64353,,,,,,1
19923,19923,Grampian St near Cavendish Rd,null,-43.47719,172.60564,,,,,,1
53809,53809,Leeston Rd near Ellesmere Junction Rd,null,-43.76203,172.29876,,,,,,1
14244,14244,Buchanans Rd near Hei Hei Rd,null,-43.53021,172.52754,,,,,,1
29738,29738,Ensors Rd near Sullivan Ave,null,-43.54716,172.66137,,,,,,1
40998,40998,Park Tce,null,-43.6057,172.70072,,,,,,1
26221,26221,Estuary Rd near Halsey St,null,-43.53412,172.73733,,,,,,1
24043,24043,Flockton St near Carrick St,null,-43.50627,172.64541,,,,,,1
23196,23196,Hackthorne Rd near Westenra Tce,null,-43.57816,172.63318,,,,,,1
28882,28882,Greers Rd near Ardmore Pl,null,-43.49212,172.5923,,,,,,1
36014,36014,Moorhouse Ave near Waller Tce,null,-43.54011,172.6245,,,,,,1
38676,38676,Ilam Rd near Kirkwood Ave,null,-43.52907,172.57995,,,,,,1
12068,12068,Main North Rd near Momorangi Cres,null,-43.48183,172.61637,,,,,,1
13399,13399,Solway Ave near Glenside Ave,null,-43.52038,172.5667,,,,,,1
15576,15576,Ferry Rd near Tunnel Rd,null,-43.55421,172.69206,,,,,,1
17754,17754,Main South Rd near Seymour St,null,-43.54448,172.51733,,,,,,1
50305,50305,Godley Rd,null,-43.61712,172.30783,,,,,,1
39527,39527,The Palms (New Brighton Rd),null,-43.50796,172.66349,,,,,,1
53813,53813,Leeston Rd near Ellesmere Junction Rd,null,-43.76209,172.29882,,,,,,1
30711,30711,Mt Pleasant,null,-43.55857,172.72925,,,,,,1
25907,25907,Gerald St near Kildare Tce,null,-43.64006,172.48513,,,,,,1
19221,19221,Harewood Rd near Wooldridge Rd,null,-43.48092,172.56913,,,,,,1
46840,46840,Marshland Rd,null,-43.49274,172.66114,,,,,,1
45994,45994,Rolleston Dr near Othello Dr,null,-43.59926,172.37269,,,,,,1
18371,18371,Burwood Hospital - Mairehau Rd,null,-43.48229,172.6831,,,,,,1
20217,20217,Queenspark Dr near Lamorna Rd,null,-43.48223,172.70785,,,,,,1
44668,44668,Waikuku,null,-43.28725,172.7161,,,,,,1
42009,42009,Port Hills Rd near Martindales Rd,null,-43.57574,172.70326,,,,,,1
54475,54475,Prestons (Te Korari St),null,-43.4624,172.66573,,,,,,1
53144,53144,Manchester St near Kilmore St,null,-43.52652,172.6396,,,,,,1
11748,11748,Centaurus Rd near Landsdowne Tce,null,-43.57061,172.64106,,,,,,1
28174,28174,Lincoln Rd near Dickens St,null,-43.54214,172.61405,,,,,,1
10417,10417,Sheffield Cres near Sir William Pickering Dr,null,-43.49171,172.56197,,,,,,1
32683,32683,Wilsons Rd near Riverlaw Tce,null,-43.55381,172.65098,,,,,,1
32200,32200,Major Hornbrook Rd near Freeman St,null,-43.56544,172.71538,,,,,,1
42481,42481,Bridle Path Rd near Cannon Hill Cres,null,-43.56315,172.7095,,,,,,1
40296,40296,North Pde near Averill St,null,-43.51206,172.66152,,,,,,1
42475,42475,Mt Pleasant Rd near Main Rd,null,-43.55569,172.71761,,,,,,1
41143,41143,Park Tce near Cressy Tce,null,-43.60758,172.70113,,,,,,1
45987,45987,Linwood Ave near Wanstead Pl,null,-43.54326,172.68932,,,,,,1
21552,21552,North Shore,null,-43.48083,172.71958,,,,,,1
44652,44652,Waikuku Beach Rd near Kaiapoi Pa Rd,null,-43.28702,172.7107,,,,,,1
43321,43321,Hoon Hay Rd near Lewis St,null,-43.55947,172.60316,,,,,,1
20229,20229,Queenspark Dr near Brentwood St,null,-43.47784,172.69579,,,,,,1
54481,54481,Prestons (Te Korari St),null,-43.4624,172.66582,,,,,,1
22403,22403,Wales St near Oldham Cres,null,-43.57763,172.55901,,,,,,1
32677,32677,Ramahana Rd near Aotea Tce,null,-43.56441,172.65407,,,,,,1
53159,53159,Kilmore St near Manchester St,null,-43.52665,172.63809,,,,,,1
10429,10429,Roydvale Ave near Juniper Pl,null,-43.49546,172.5637,,,,,,1
12607,12607,Halswell Rd near Coppell Pl,null,-43.55423,172.59354,,,,,,1
54009,54009,Prestons Rd near Te Korari St,null,-43.47417,172.66268,,,,,,1
11753,11753,Beckenham,null,-43.56914,172.63663,,,,,,1
13933,13933,Main North Rd near Wrights Rd,null,-43.40968,172.64867,,,,,,1
39298,39298,Travis Rd near Blue Gum Pl,null,-43.49408,172.70684,,,,,,1
41136,41136,Governors Bay Rd near Mariners Cv,null,-43.60206,172.69046,,,,,,1
46829,46829,Saracen Ave near Mahlet St,null,-43.46234,172.61506,,,,,,1
44647,44647,Main Nth Rd near Waikuku Beach Rd,null,-43.29011,172.68485,,,,,,1
11724,11724,Cashmere Rd near Ferniehurst St,null,-43.57166,172.61842,,,,,,1
54013,54013,Prestons Rd near Te Korari St,null,-43.47394,172.6643,,,,,,1
53163,53163,Hereford St near Colombo St,null,-43.53199,172.63773,,,,,,1
54499,54499,Preston Downs Reserve,null,-43.51762,172.37013,,,,,,1
33999,33999,Halswell,null,-43.59084,172.57009,,,,,,1
19213,19213,Fendalton Rd near Tui St,null,-43.51911,172.59584,,,,,,1
44634,44634,Waikuku Beach Rd near Kaiapoi Pa Rd,null,-43.28715,172.7109,,,,,,1
23718,23718,Wilsons Rd near Koromiko St,null,-43.55916,172.6549,,,,,,1
40277,40277,Marine Pde near Hawke St,null,-43.50496,172.72998,,,,,,1
18363,18363,Burwood Rd near Mairehau Rd,null,-43.48341,172.68122,,,,,,1
45960,45960,Mandeville St near Kyle St,null,-43.5324,172.60641,,,,,,1
46817,46817,Saracen Ave near Handel Cl,null,-43.46289,172.61471,,,,,,1
41127,41127,Delta Wy near Ti Rakau Dr,null,-43.55149,172.69475,,,,,,1
39280,39280,Travis Rd near Bower Ave,null,-43.49517,172.71001,,,,,,1
53171,53171,Hereford St near Colombo St,null,-43.53207,172.63768,,,,,,1
32654,32654,Centaurus Rd near Ramahana Rd,null,-43.56296,172.65566,,,,,,1
13914,13914,Kainga,null,-43.41912,172.65262,,,,,,1
54021,54021,Simeon St near Milton St,null,-43.556,172.62309,,,,,,1
33981,33981,Halswell Rd near O'halloran Dr,null,-43.59109,172.56792,,,,,,1
29499,29499,Cranford St near Fraser St,null,-43.49038,172.62073,,,,,,1
11730,11730,Cashmere Rd near Valley Rd,null,-43.56865,172.62449,,,,,,1
10401,10401,Kilmarnock St near Kahu Rd,null,-43.5271,172.60341,,,,,,1
19664,19664,Northcote Rd near Uxbridge St,null,-43.48423,172.60855,,,,,,1
46801,46801,Pages Rd near Kearneys Rd,null,-43.52355,172.68805,,,,,,1
17488,17488,Main South Rd near Seymour St,null,-43.54434,172.51731,,,,,,1
44623,44623,King St near Seddon St,null,-43.30006,172.58968,,,,,,1
50909,50909,Pegasus Blvd near Whakatipu St,null,-43.31621,172.68927,,,,,,1
39279,39279,New Brighton Rd near Bampton St,null,-43.50745,172.66802,,,,,,1
41115,41115,Rapaki,null,-43.60393,172.6795,,,,,,1
42447,42447,Heathcote,null,-43.57721,172.71102,,,,,,1
37093,37093,Frankleigh St,null,-43.56217,172.61584,,,,,,1
33975,33975,Halswell Rd near Larsens Rd,null,-43.58826,172.56991,,,,,,1
2107,2107,Burnham,null,-43.61618,172.29845,,,,,,1
53185,53185,Rolleston Ave near Gloucester St,null,-43.5295,172.62754,,,,,,1
54032,54032,Milton St near Simeon St,null,-43.55591,172.62432,,,,,,1
29468,29468,Antigua St near Disraeli St,null,-43.54313,172.62784,,,,,,1
11707,11707,Cashmere Rd,null,-43.56691,172.63097,,,,,,1
28135,28135,Lincoln Rd near Clarence St S,null,-43.54427,172.61076,,,,,,1
32649,32649,Mt Pleasant Rd near Belleview Tce,null,-43.56983,172.72114,,,,,,1
10850,10850,Clyde Rd near Aorangi Rd,null,-43.50715,172.58789,,,,,,1
44610,44610,Main North Rd near Pa Rd,null,-43.34943,172.66389,,,,,,1
45941,45941,Mcgregors Rd near Ruru Rd,null,-43.53073,172.68473,,,,,,1
50913,50913,Springs Rd near Marshs Rd,null,-43.56949,172.52221,,,,,,1
37086,37086,Harewood Rd near Restell St,null,-43.4967,172.60688,,,,,,1
42434,42434,Main Rd near Raekura Pl,null,-43.55839,172.73419,,,,,,1
22847,22847,Coronation St near Simeon St,null,-43.55137,172.61863,,,,,,1
39267,39267,Cresswell Ave and New Brighton Rd,null,-43.5057,172.67401,,,,,,1
40254,40254,Rodney St near Union St,null,-43.51383,172.73008,,,,,,1
17490,17490,Main South Rd near Chalmers St,null,-43.54366,172.52126,,,,,,1
41104,41104,Gardiners Rd near Smacks Cl,null,-43.46361,172.58934,,,,,,1
53192,53192,Salisbury St near Gracefield Ave,null,-43.52436,172.63609,,,,,,1
29475,29475,Cranford St near Mcfaddens Rd,null,-43.49877,172.62917,,,,,,1
54045,54045,Faringdon (Blvd),null,-43.61665,172.38838,,,,,,1
28142,28142,Addington Village,null,-43.54292,172.61303,,,,,,1
32631,32631,Mt Pleasant Rd near Drayton Dr,null,-43.56804,172.72118,,,,,,1
50921,50921,Pegasus Blvd near Solander Rd,null,-43.3161,172.69273,,,,,,1
33968,33968,Halswell Rd near Glovers Rd,null,-43.59311,172.56525,,,,,,1
11711,11711,Cashmere Rd near Valley Rd,null,-43.56877,172.62463,,,,,,1
20632,20632,Hills Rd near Gresford St,null,-43.51662,172.65176,,,,,,1
39251,39251,New Brighton Rd near Horseshoe Lake Rd,null,-43.50694,172.66808,,,,,,1
42423,42423,Bridle Path Rd near Rollin St,null,-43.57954,172.70989,,,,,,1
17461,17461,Riccarton Rd near Harakeke St,null,-43.52927,172.60528,,,,,,1
15286,15286,Ferry Rd near Hargood St,null,-43.54769,172.68009,,,,,,1
19640,19640,Regents Park Dr near Woodhurst Dr,null,-43.47074,172.61272,,,,,,1
37072,37072,Waimairi Rd near Bowen St,null,-43.52984,172.57391,,,,,,1
54050,54050,Faringdon (Lansdowne Wy),null,-43.61639,172.38879,,,,,,1
22810,22810,Simeon St near Howard St,null,-43.54983,172.61649,,,,,,1
33952,33952,Patterson Tce near Brigham Dr,null,-43.57333,172.5551,,,,,,1
28594,28594,Matipo St near Maxwell St,null,-43.53242,172.59576,,,,,,1
10832,10832,Clyde Rd near Morley St,null,-43.50566,172.58667,,,,,,1
32620,32620,Soleares Ave near Mccormacks Bay Rd,null,-43.55785,172.72254,,,,,,1
50932,50932,Pegasus Blvd near Pegasus Main St,null,-43.31482,172.6968,,,,,,1
38393,38393,Riccarton Rd near Middleton Rd,null,-43.53146,172.57888,,,,,,1
22823,22823,Waltham Rd near Hastings St E,null,-43.54884,172.64688,,,,,,1
42410,42410,Main Rd near Celia St,null,-43.56009,172.7364,,,,,,1
15293,15293,Ferry Rd near Portman St,null,-43.54918,172.68279,,,,,,1
40231,40231,Buckleys Rd near Kerrs Rd,null,-43.52713,172.68177,,,,,,1
43748,43748,Central Park and Ride (White St),null,-43.3063,172.58633,,,,,,1
45925,45925,Christchurch Gondola,null,-43.58478,172.70761,,,,,,1
20645,20645,Hills Rd near Avalon St,null,-43.5184,172.65153,,,,,,1
29452,29452,Cranford St near Edgeware Rd,null,-43.51301,172.63803,,,,,,1
54066,54066,Birchs Rd near Barton Fields Dr,null,-43.63146,172.4926,,,,,,1
16148,16148,Wairakei Rd near Aorangi Rd,null,-43.50341,172.5934,,,,,,1
50945,50945,Pegasus Blvd near Waireka St,null,-43.31625,172.6926,,,,,,1
32612,32612,Brougham St near Wilsons Rd,null,-43.54845,172.65212,,,,,,1
23328,23328,Colombo St and Somerfield St,null,-43.55623,172.63677,,,,,,1
47775,47775,Merrin St near Farndale Pl,null,-43.51012,172.56025,,,,,,1
10493,10493,Cranbrook Ave near Appleby Cres,null,-43.49965,172.5741,,,,,,1
22474,22474,Barrington St near Conway St,null,-43.56123,172.62323,,,,,,1
26831,26831,Pages Rd near Rowan Ave,null,-43.51482,172.70781,,,,,,1
52697,52697,Tennyson St near Markham Way,null,-43.59523,172.38281,,,,,,1
54874,54874,Kaiapoi South Park & Ride,null,-43.41055,172.64865,,,,,,1
32285,32285,Main North Rd near School Rd,null,-43.32483,172.66593,,,,,,1
51368,51368,Fendalton Rd near Holmwood Rd,null,-43.52215,172.61142,,,,,,1
44261,44261,Ashley St near Rickton Pl,null,-43.29354,172.59389,,,,,,1
50037,50037,Burwood Rd near Rothesay Rd,null,-43.47688,172.67969,,,,,,1
42084,42084,Port Hills Rd near Mauger Dr,null,-43.57302,172.69797,,,,,,1
12676,12676,Hendersons Road,null,-43.56239,172.58176,,,,,,1
26849,26849,Pages Rd near Portchester St,null,-43.51361,172.71073,,,,,,1
44257,44257,Southbrook,null,-43.32667,172.60009,,,,,,1
12682,12682,Hendersons Rd near Rowley Ave,null,-43.56549,172.58522,,,,,,1
42078,42078,Port Hills Rd near Avoca Valley Rd,null,-43.56841,172.68264,,,,,,1
25995,25995,Waterloo Rd near Wilson St,null,-43.54177,172.50694,,,,,,1
45109,45109,Jones Rd (Templeton),null,-43.55647,172.468,,,,,,1
22488,22488,Westlake,null,-43.56827,172.55567,,,,,,1
23337,23337,Colombo St near Devon St,null,-43.55341,172.63674,,,,,,1
25515,25515,Waterloo Rd near Brixton St,null,-43.54176,172.50659,,,,,,1
33127,33127,Hoon Hay Rd near Smartlea St,null,-43.56082,172.60524,,,,,,1
15716,15716,Ferry Rd near Charlesworth St,null,-43.55529,172.69435,,,,,,1
13539,13539,Withells Rd near Avonhead Rd,null,-43.50439,172.55983,,,,,,1
24661,24661,Yaldhurst Rd near Brodie St,null,-43.53015,172.56584,,,,,,1
53558,53558,Waikuku Beach Rd near Northside Dr,null,-43.28923,172.70357,,,,,,1
45580,45580,Linwood Ave near Wanstead Pl,null,-43.54313,172.68946,,,,,,1
14864,14864,Manchester St near Salisbury St,null,-43.5241,172.63953,,,,,,1
54888,54888,Northern Park and Ride (River Rd),null,-43.2885,172.58973,,,,,,1
12204,12204,Burwood Rd near Carlsen St,null,-43.49605,172.68299,,,,,,1
10026,10026,Maidstone Rd,null,-43.51696,172.57103,,,,,,1
37967,37967,Innes Rd near Mahars Rd,null,-43.49799,172.64236,,,,,,1
45579,45579,Warrington St near Woodville St,null,-43.50817,172.65082,,,,,,1
44242,44242,Ashley St near Coldstream Rd,null,-43.29314,172.59364,,,,,,1
42066,42066,Port Hills Rd near Horotane Valley Rd,null,-43.57195,172.69463,,,,,,1
43397,43397,Sparks Rd near Hoon Hay Rd,null,-43.5643,172.60969,,,,,,1
19284,19284,Cranford St near Main North Rd,null,-43.48861,172.61776,,,,,,1
23787,23787,Colombo St near Ernlea Tce,null,-43.56225,172.63706,,,,,,1
53562,53562,Stanmore Rd near Worcester St,null,-43.53136,172.65715,,,,,,1
54890,54890,Ledbury Dr near East Maddisons Rd,null,-43.62214,172.38415,,,,,,1
33115,33115,Mathers Rd near Hoon Hay Rd,null,-43.5581,172.59922,,,,,,1
54410,54410,Marshland School,null,-43.47164,172.66554,,,,,,1
20272,20272,Queenspark Dr near Branksome Pl,null,-43.47873,172.69732,,,,,,1
12653,12653,Halswell Rd near Hendersons Rd,null,-43.56131,172.58163,,,,,,1
37951,37951,Hills Rd near Westminster St,null,-43.49729,172.64962,,,,,,1
10472,10472,Kendal Ave near Whitby St,null,-43.499,172.57074,,,,,,1
11321,11321,Lyttelton St near Rose St,null,-43.56796,172.61526,,,,,,1
44235,44235,Southbrook,null,-43.32664,172.59986,,,,,,1
20286,20286,Queenspark Dr near Brentwood St,null,-43.4772,172.69518,,,,,,1
19297,19297,Fendalton Rd near Snowdon Rd,null,-43.51928,172.59908,,,,,,1
23794,23794,Colombo St near Tennyson St,null,-43.55882,172.63698,,,,,,1
24642,24642,Russley Rd near Dinton St,null,-43.51883,172.5348,,,,,,1
25976,25976,Prebbleton,null,-43.57944,172.51375,,,,,,1
53570,53570,Murphys Rd near Graycliffe St,null,-43.57801,172.55284,,,,,,1
33104,33104,Hoon Hay Rd near Maryhill Ave,null,-43.56222,172.60738,,,,,,1
54423,54423,Marshland School,null,-43.47146,172.66571,,,,,,1
42050,42050,Port Hills Rd near Nuttall Dr,null,-43.56637,172.68041,,,,,,1
36610,36610,Greers Rd near Ruddenklau Ln,null,-43.49363,172.59095,,,,,,1
10486,10486,Cranbrook Ave near Kendal Ave,null,-43.49841,172.57293,,,,,,1
14840,14840,Bealey Ave,null,-43.52162,172.6397,,,,,,1
13998,13998,Main North Rd near Neeves Rd,null,-43.40379,172.64565,,,,,,1
10003,10003,Maidstone Rd near Hounslow St,null,-43.517,172.56762,,,,,,1
37946,37946,Hills Rd near Acheson Ave,null,-43.50113,172.65149,,,,,,1
43378,43378,Sparks Rd near Waimokihi Pl,null,-43.56369,172.61236,,,,,,1
44226,44226,Southbrook Rd near Coronation St,null,-43.32162,172.59797,,,,,,1
20255,20255,Queenspark Dr near Inwoods Rd,null,-43.47975,172.70091,,,,,,1
25948,25948,Springs Rd near Birchs Rd,null,-43.58282,172.51054,,,,,,1
24619,24619,Bentley St near Delaware Cres,null,-43.5191,172.54122,,,,,,1
42045,42045,Port Hills Rd near Ardtrea Ln,null,-43.57389,172.7006,,,,,,1
19266,19266,Edgeware Village,null,-43.51391,172.6365,,,,,,1
17085,17085,Memorial Ave near Stableford Green,null,-43.49699,172.55621,,,,,,1
22435,22435,Rose St near Cashmere View St,null,-43.56683,172.61881,,,,,,1
53100,53100,Bus Interchange (Platform A),null,-43.53488,172.6371,,,,,,1
36606,36606,Greers Rd near Saffron St,null,-43.49875,172.58681,,,,,,1
14817,14817,Gilberthorpes Rd near Roberts Rd,null,-43.53729,172.51737,,,,,,1
13967,13967,Main North Rd near Old Main North Rd,null,-43.35968,172.66458,,,,,,1
11309,11309,Aldwins Rd near Marlborough St,null,-43.53465,172.67156,,,,,,1
54434,54434,Te Korari St near Raranga St,null,-43.46706,172.66524,,,,,,1
32244,32244,Madeley Rd near Major Hornbrook Rd,null,-43.57204,172.72012,,,,,,1
12630,12630,Halswell Rd near Tankerville Rd,null,-43.55598,172.59062,,,,,,1
11782,11782,Cashmere Rd near Ferniehurst St,null,-43.57161,172.61829,,,,,,1
21581,21581,Effingham St near Surfers Pl,null,-43.4919,172.72102,,,,,,1
53589,53589,Murphys Rd near Halswell Junction Rd,null,-43.57758,172.55322,,,,,,1
37933,37933,Main North Rd near Vagues Rd,null,-43.48961,172.61452,,,,,,1
24626,24626,Yaldhurst Rd near Bucknell St,null,-43.52738,172.55674,,,,,,1
45546,45546,Burwood Rd near Rothesay Rd,null,-43.47682,172.6795,,,,,,1
44699,44699,Main North Rd near Pa Rd,null,-43.35052,172.66382,,,,,,1
26808,26808,Kippenberger Ave near Devlin Ave,null,-43.30111,172.61266,,,,,,1
41189,41189,Governors Bay Rd,null,-43.60291,172.69324,,,,,,1
46872,46872,James St near Birchs Rd,null,-43.63434,172.49059,,,,,,1
22442,22442,Barrington St near Strauss Pl,null,-43.55899,172.62072,,,,,,1
53591,53591,Longhurst Medical Centre,null,-43.57802,172.54665,,,,,,1
25953,25953,Gerald St near West Belt,null,-43.64048,172.482,,,,,,1
44219,44219,Sewell St near Smith St,null,-43.378,172.65737,,,,,,1
32237,32237,Major Hornbrook Rd near Belleview Tce,null,-43.56961,172.71662,,,,,,1
13979,13979,Main North Rd,null,-43.39901,172.64852,,,,,,1
11795,11795,Centaurus Rd near Bowenvale Ave,null,-43.57056,172.64358,,,,,,1
53116,53116,Bus Interchange (Platform B),null,-43.53456,172.63724,,,,,,1
54447,54447,Te Korari St near David Palmer St,null,-43.46665,172.66506,,,,,,1
44203,44203,Southbrook Rd near Denchs Rd,null,-43.32063,172.59756,,,,,,1
25924,25924,Templeton,null,-43.5518,172.47243,,,,,,1
46864,46864,Springs Rd near Brynley St,null,-43.55118,172.53566,,,,,,1
22419,22419,Halswell Shops,null,-43.57962,172.56536,,,,,,1
42021,42021,Martindales Rd near Truscotts Rd,null,-43.5759,172.70739,,,,,,1
18392,18392,Wainoni Rd near Cuffs Rd,null,-43.51862,172.68496,,,,,,1
23741,23741,Colombo St near Somerfield St,null,-43.55639,172.63696,,,,,,1
20238,20238,Queenspark Dr near Branksome Pl,null,-43.47885,172.69804,,,,,,1
21568,21568,Aston Dr near Beach Rd,null,-43.48573,172.72071,,,,,,1
54452,54452,Leeston,null,-43.76656,172.28901,,,,,,1
11769,11769,Cashmere Rd near Crichton Tce,null,-43.56787,172.62723,,,,,,1
13946,13946,Creyke Rd,null,-43.51946,172.57978,,,,,,1
44681,44681,Main North Rd near Sandhill Rd,null,-43.34059,172.66654,,,,,,1
53128,53128,Waikuku Beach Rd near Northside Dr,null,-43.28913,172.7035,,,,,,1
41170,41170,Grimseys Rd near Dunedin St,null,-43.47662,172.62726,,,,,,1
42013,42013,Hendersons Road,null,-43.56252,172.58171,,,,,,1
44675,44675,Main Nth Rd near Waikuku Beach Rd,null,-43.29036,172.68503,,,,,,1
42499,42499,Main Rd near The Brae,null,-43.55615,172.71382,,,,,,1
41162,41162,Brittan Tce near Seaview Tce,null,-43.6046,172.70999,,,,,,1
21575,21575,Effingham St near Monowai Cres,null,-43.49006,172.7179,,,,,,1
20240,20240,Queenspark Dr near Chadlington St,null,-43.47537,172.69497,,,,,,1
25930,25930,Gerald St near Murray Pl,null,-43.64105,172.47708,,,,,,1
47706,47706,Halswell Rd near Milns Rd,null,-43.57244,172.57109,,,,,,1
24603,24603,Yaldhurst Rd near Nortons Rd,null,-43.52674,172.55469,,,,,,1
23756,23756,Colombo St near Thorrington Rd,null,-43.56445,172.63715,,,,,,1
32696,32696,Waltham Rd near Bunyan St,null,-43.55246,172.64882,,,,,,1
37905,37905,Innes Rd near Manuka St,null,-43.49622,172.64595,,,,,,1
54468,54468,Irwell,null,-43.7044,172.36091,,,,,,1
13951,13951,Supa Centa,null,-43.46006,172.6225,,,,,,1
14801,14801,Manurere St,null,-43.53526,172.52011,,,,,,1
32216,32216,Major Hornbrook Rd near Muritai Tce,null,-43.56698,172.71569,,,,,,1
29050,29050,Selwyn St near Dobson St,null,-43.55369,172.62653,,,,,,1
12150,12150,Marine Pde near Rawhiti Ave,null,-43.50135,172.72879,,,,,,1
38301,38301,Riccarton Rd near Wainui St,null,-43.53027,172.59246,,,,,,1
23288,23288,Hackthorne Rd near Cashmere Rd,null,-43.57144,172.62408,,,,,,1
33094,33094,Hoon Hay Rd near Maryhill Ave,null,-43.56186,172.6066,,,,,,1
29826,29826,Grimseys Rd near Exton St,null,-43.47144,172.62752,,,,,,1
26311,26311,Caspian St near Rocking Horse Rd,null,-43.53859,172.74121,,,,,,1
17847,17847,Main South Rd,null,-43.54015,172.55223,,,,,,1
13489,13489,Papanui Rd near Grants Rd,null,-43.4999,172.61041,,,,,,1
38788,38788,Main South Rd near Curletts Rd,null,-43.53213,172.57025,,,,,,1
53948,53948,Lodestar Ave near Hayton Rd,null,-43.54716,172.56055,,,,,,1
39639,39639,Hills Rd near Ailsa St,null,-43.50522,172.65155,,,,,,1
13491,13491,Papanui Rd near Bellvue Ave,null,-43.49839,172.60908,,,,,,1
16520,16520,Wairakei Rd near Manor Pl,null,-43.50067,172.58857,,,,,,1
29835,29835,Grimseys Rd near Dunbarton St,null,-43.47359,172.62735,,,,,,1
26324,26324,Rocking Horse Rd near Godwit St,null,-43.54051,172.74332,,,,,,1
33087,33087,Hoon Hay Rd near Lewis St,null,-43.55914,172.60243,,,,,,1
40616,40616,Colombo St near Bealey Ave,null,-43.52038,172.63668,,,,,,1
23290,23290,Hackthorne Rd near Lowick Ave,null,-43.57684,172.62424,,,,,,1
28980,28980,Main Rd,null,-43.5561,172.71345,,,,,,1
24140,24140,Emmett St near Acheson Ave,null,-43.50134,172.65606,,,,,,1
36597,36597,Greers Rd near Brookside Tce,null,-43.50036,172.58545,,,,,,1
15678,15678,Pages Rd,null,-43.51105,172.71713,,,,,,1
12166,12166,Marine Pde near Bowhill Rd,null,-43.49606,172.72694,,,,,,1
39625,39625,Shirley Rd near Slater St,null,-43.50803,172.65315,,,,,,1
30814,30814,Main Rd near Cliff St,null,-43.56627,172.74563,,,,,,1
53953,53953,Preston Downs Reserve,null,-43.51762,172.36992,,,,,,1
13017,13017,Staveley St near Avonhead Rd,null,-43.52113,172.56098,,,,,,1
18702,18702,Tuam St near Phillips St,null,-43.53541,172.65476,,,,,,1
54803,54803,Fuller St near Peraki St,null,-43.38258,172.65284,,,,,,1
11281,11281,Whiteleigh Ave near Leamington St,null,-43.54226,172.60528,,,,,,1
13462,13462,Main North Rd near Barnes Rd,null,-43.47263,172.6171,,,,,,1
38761,38761,Riccarton Rd near Paeroa St,null,-43.53063,172.58786,,,,,,1
14791,14791,Manurere St near Ranui St,null,-43.53355,172.52247,,,,,,1
12132,12132,Beach Rd near Britannia St,null,-43.48628,172.71866,,,,,,1
40600,40600,Gardiners Rd near Smacks Cl,null,-43.46317,172.58926,,,,,,1
33073,33073,Hoon Hay Rd near Smartlea St,null,-43.56083,172.60502,,,,,,1
24117,24117,Briggs Rd near Innes Rd,null,-43.49561,172.65079,,,,,,1
29803,29803,Lowry Ave near Grimseys Rd,null,-43.46923,172.6272,,,,,,1
23261,23261,Hargood St near Oban Pl,null,-43.54554,172.68079,,,,,,1
24592,24592,Yaldhurst Rd near English St,null,-43.52897,172.56268,,,,,,1
28951,28951,Matipo St near Rex St,null,-43.53619,172.5963,,,,,,1
15645,15645,Main North Rd near Tuckers Rd,null,-43.47968,172.61684,,,,,,1
37436,37436,Harewood Rd near Marble Wood Dr,null,-43.49429,172.60223,,,,,,1
51306,51306,Bush St near Watson Pl,null,-43.31242,172.58988,,,,,,1
53969,53969,Halkett Rd near Rossington Dr,null,-43.51571,172.37646,,,,,,1
14318,14318,Manchester St near Kilmore St,null,-43.52622,172.63972,,,,,,1
39618,39618,New Brighton Rd near Netherby Ln,null,-43.50797,172.66581,,,,,,1
13470,13470,Main North Rd near Sturrocks Rd,null,-43.47492,172.61692,,,,,,1
29819,29819,Daniels Rd near Hannah Pl,null,-43.4785,172.62036,,,,,,1
54819,54819,Fuller St near Evans Pl,null,-43.38034,172.65046,,,,,,1
15650,15650,Northlands Platform C,null,-43.49421,172.61004,,,,,,1
25455,25455,Gerald St near West Belt,null,-43.6407,172.48089,,,,,,1
33060,33060,Mathers Rd near Cedars St,null,-43.5583,172.5991,,,,,,1
26307,26307,Rocking Horse Rd near Godwit St,null,-43.54005,172.74294,,,,,,1
16508,16508,Wairakei Rd,null,-43.489,172.56696,,,,,,1
23274,23274,Hargood St near Clydesdale St,null,-43.54307,172.68323,,,,,,1
12145,12145,Marine Pde near Lonsdale St,null,-43.503,172.72943,,,,,,1
47222,47222,Christchurch International Airport,null,-43.48781,172.54141,,,,,,1
44196,44196,Sheffield Cres,null,-43.48923,172.56223,,,,,,1
36578,36578,Burnside High School,null,-43.50669,172.5792,,,,,,1
11299,11299,Buckleys Rd near Rhona St,null,-43.53065,172.67655,,,,,,1
46373,46373,Heaton St,null,-43.51318,172.61037,,,,,,1
38757,38757,Clyde Rd near Totara St,null,-43.52895,172.58705,,,,,,1
54826,54826,Fuller Street near Akaroa St,null,-43.38134,172.65171,,,,,,1
17834,17834,Burnham,null,-43.61636,172.29863,,,,,,1
22398,22398,Barrington Mall (Athelstan St),null,-43.55713,172.62007,,,,,,1
17806,17806,Masefield Dr near Durrell Wy,null,-43.59701,172.3921,,,,,,1
26751,26751,Central Park and Ride (White St),null,-43.30669,172.58626,,,,,,1
50474,50474,Heaton Intermediate,null,-43.51046,172.61639,,,,,,1
33056,33056,Penruddock Rse near Hamish Pl,null,-43.57675,172.60351,,,,,,1
23242,23242,Radley St near Cumnor Tce,null,-43.54814,172.67802,,,,,,1
54835,54835,Adderley Tce near Sneyd St,null,-43.37861,172.64575,,,,,,1
44183,44183,Ferry Rd near Phillipstown Cts,null,-43.54021,172.65866,,,,,,1
51323,51323,Pegasus Blvd near SH-1,null,-43.30969,172.67466,,,,,,1
53504,53504,Burwood Hospital - Main Entrance,null,-43.48064,172.68181,,,,,,1
15621,15621,Ferrymead Shops,null,-43.55741,172.7017,,,,,,1
13443,13443,Waimairi Rd near Maidstone Rd,null,-43.51745,172.57207,,,,,,1
12113,12113,Burwood Rd near Stanford St,null,-43.48499,172.68181,,,,,,1
37415,37415,Greers Rd near Ruddenklau Ln,null,-43.49386,172.59095,,,,,,1
11268,11268,Clarence St near Lyndon St,null,-43.53553,172.60264,,,,,,1
44177,44177,Lincoln Rd near Domain Tce,null,-43.5529,172.59611,,,,,,1
45023,45023,Rolleston Dr near Othello Dr,null,-43.59901,172.3723,,,,,,1
12121,12121,Burwood Rd near Newhaven St,null,-43.48819,172.68307,,,,,,1
24101,24101,Kensington Ave near Innes Rd,null,-43.49939,172.6403,,,,,,1
23257,23257,Colombo St near Woodbridge Rd,null,-43.56698,172.63534,,,,,,1
28946,28946,Main Rd near Mccormacks Bay Rd,null,-43.55553,172.71808,,,,,,1
54842,54842,Adderley Tce near Wesley St,null,-43.37895,172.64704,,,,,,1
50000,50000,Ellesmere Junction Rd near Leeston Rd,null,-43.64292,172.42508,,,,,,1
53995,53995,Briggs Rd,null,-43.49613,172.65314,,,,,,1
32198,32198,Rodney St near Union St,null,-43.51397,172.73004,,,,,,1
14302,14302,Manchester St near Salisbury St,null,-43.52467,172.63971,,,,,,1
50488,50488,Heaton St - St Georges,null,-43.51033,172.61696,,,,,,1
11275,11275,Whiteleigh Ave near Troup Dr,null,-43.53908,172.60387,,,,,,1
53515,53515,Patterson Tce near Calverton Place,null,-43.57585,172.55367,,,,,,1
51334,51334,Pegasus Blvd near SH-1,null,-43.30978,172.67446,,,,,,1
16963,16963,Gardiners Rd near St Ives St,null,-43.48242,172.58163,,,,,,1
15632,15632,Ferry Rd near Waterman Pl,null,-43.55686,172.69859,,,,,,1
37404,37404,Waimairi Rd near Athol Tce,null,-43.52559,172.57341,,,,,,1
13458,13458,Dovedale Ave near Lynfield Ave,null,-43.52054,172.57167,,,,,,1
14789,14789,Manurere St near Tauiwi Cres,null,-43.53096,172.52508,,,,,,1
20199,20199,Queenspark Dr near Chadbury St,null,-43.48145,172.70533,,,,,,1
25884,25884,Kirk Rd near Railway Tce,null,-43.55369,172.47378,,,,,,1
25401,25401,Craven St near Algidus St,null,-43.53387,172.55845,,,,,,1
32180,32180,Ferry Rd (Ritchies Depot WB),null,-43.5379,172.64876,,,,,,1
28914,28914,Matipo St near Elizabeth St,null,-43.53586,172.59643,,,,,,1
23226,23226,Colombo St near Hastings St W,null,-43.54888,172.63664,,,,,,1
22379,22379,Rose St near Beechworth Ave,null,-43.56446,172.62308,,,,,,1
24559,24559,Springs Rd near Garvins Rd,null,-43.54683,172.54227,,,,,,1
15609,15609,Linwood Ave near Keighleys Rd,null,-43.54056,172.68468,,,,,,1
54857,54857,Barnard St near Silverstream Blvd,null,-43.38262,172.63563,,,,,,1
10396,10396,Kilmarnock St near Kahu Rd,null,-43.52727,172.60285,,,,,,1
46341,46341,Harewood Rd near Waimakariri Rd,null,-43.47905,172.55834,,,,,,1
51347,51347,Northlands Platform B,null,-43.49338,172.61059,,,,,,1
37876,37876,Cresswell Ave near Gayhurst Rd,null,-43.50773,172.67211,,,,,,1
45010,45010,Mandeville St,null,-43.53537,172.60703,,,,,,1
11247,11247,Whiteleigh Ave near Barrington St,null,-43.54467,172.608,,,,,,1
12579,12579,Lincoln Rd near Torrens Rd,null,-43.55039,172.60002,,,,,,1
13427,13427,Staveley St near Nortons Rd,null,-43.52002,172.55748,,,,,,1
53527,53527,Hereford St near Fitzgerald Ave,null,-43.53194,172.6493,,,,,,1
38726,38726,Clyde Rd near Hinau St,null,-43.52771,172.587,,,,,,1
46339,46339,Gloucester St near Barbadoes St,null,-43.52977,172.64476,,,,,,1
44154,44154,Wainoni Rd near Shortland St,null,-43.51332,172.69035,,,,,,1
24563,24563,Springs Rd near Henry Wigram Dr,null,-43.5445,172.5446,,,,,,1
25897,25897,Birchs Rd near Hamptons Rd,null,-43.59635,172.51129,,,,,,1
23235,23235,Colombo St near King St,null,-43.55144,172.63672,,,,,,1
26746,26746,White St near Parkhouse Dr,null,-43.31013,172.5871,,,,,,1
38719,38719,University - Ilam Rd,null,-43.52473,172.57929,,,,,,1
32179,32179,Major Hornbrook Rd near Freeman St,null,-43.56553,172.71558,,,,,,1
22380,22380,Rose St near Beechworth Ave,null,-43.56406,172.62351,,,,,,1
51352,51352,Northlands Platform D,null,-43.49364,172.61053,,,,,,1
33025,33025,Mathers Rd near Redgrave St,null,-43.56243,172.59192,,,,,,1
54861,54861,Barnard St near Rahme Cres,null,-43.38272,172.63606,,,,,,1
53536,53536,Milton St near Selwyn St,null,-43.55478,172.62635,,,,,,1
47660,47660,Creyke Rd near Clyde Rd,null,-43.52204,172.58818,,,,,,1
13436,13436,Staveley St near Avonhead Rd,null,-43.521,172.56103,,,,,,1
18773,18773,Beach Rd near Effingham St,null,-43.48639,172.71622,,,,,,1
16596,16596,Wairakei Rd near Breens Rd,null,-43.493,172.57389,,,,,,1
13086,13086,Clyde Rd near Wai-iti Tce,null,-43.51083,172.58967,,,,,,1
15264,15264,Ferry Rd near Smith St,null,-43.54495,172.67165,,,,,,1
42406,42406,Bridle Path Rd near Port Hills Rd,null,-43.58228,172.70808,,,,,,1
41557,41557,Main Nth Rd near Gressons Rd,null,-43.29513,172.68441,,,,,,1
20613,20613,Bower Ave near Castletown Pl,null,-43.49751,172.71048,,,,,,1
42888,42888,Harewood Rd near Wilmot St,null,-43.4926,172.59925,,,,,,1
55288,55288,Huntsbury Ave near Major Aitken Dr,null,-43.57258,172.65473,,,,,,1
26395,26395,Estuary Rd near Ebbtide St,null,-43.53791,172.73912,,,,,,1
10813,10813,Clyde Rd near Hooker Ave,null,-43.50503,172.5842,,,,,,1
20609,20609,Bower Ave near Thurso Pl,null,-43.49975,172.71014,,,,,,1
19629,19629,Northcote Rd near Lydia St,null,-43.48437,172.61183,,,,,,1
32608,32608,Brougham St near Defoe Place,null,-43.54785,172.64947,,,,,,1
33934,33934,Rose St near Marley View St,null,-43.56778,172.61732,,,,,,1
50834,50834,Selwyn St near Disraeli St,null,-43.54324,172.62187,,,,,,1
18300,18300,North Pde near Randall St,null,-43.51558,172.65996,,,,,,1
20621,20621,Whitmore St near Avalon St,null,-43.51878,172.65075,,,,,,1
15272,15272,Ferry Rd near Tilford St,null,-43.54619,172.67608,,,,,,1
13093,13093,Clyde Rd near Evatt St,null,-43.50855,172.58882,,,,,,1
42874,42874,Colombo St near Cass St,null,-43.54216,172.63659,,,,,,1
18787,18787,St Asaph St near Phillips St,null,-43.53642,172.65289,,,,,,1
40212,40212,Wairakei Rd near Kendal Ave,null,-43.49594,172.57761,,,,,,1
39222,39222,Travis Rd,null,-43.49305,172.69797,,,,,,1
16124,16124,Wairakei Rd near Blighs Rd,null,-43.50634,172.59874,,,,,,1
45902,45902,Gerald St near Kildare Tce,null,-43.6402,172.485,,,,,,1
28587,28587,Matipo St near Peverel St,null,-43.53309,172.59603,,,,,,1
29434,29434,Cranford St near Innes Rd,null,-43.50152,172.63159,,,,,,1
17457,17457,Fendalton,null,-43.51744,172.58833,,,,,,1
42861,42861,Harewood Rd near Harris Cres,null,-43.49081,172.59501,,,,,,1
14394,14394,Park Tce near Peterborough St,null,-43.52522,172.62828,,,,,,1
50847,50847,Selwyn St near Harman St,null,-43.54305,172.62173,,,,,,1
39694,39694,Ensors Rd,null,-43.55084,172.65872,,,,,,1
38364,38364,Barbadoes St near Edgeware Rd,null,-43.51308,172.64603,,,,,,1
13064,13064,Ilam near Montana Ave,null,-43.52104,172.57938,,,,,,1
39214,39214,Bassett St near Vivian St,null,-43.49374,172.69076,,,,,,1
43711,43711,Main North Rd near Thompsons Rd,null,-43.45642,172.62489,,,,,,1
24193,24193,Emmett St near Bellbrook Cres,null,-43.49888,172.65655,,,,,,1
25042,25042,Buchanans Rd near Peebles Dr,null,-43.53378,172.53933,,,,,,1
30880,30880,Soleares Ave near Santa Maria Ave,null,-43.56399,172.7213,,,,,,1
16577,16577,Rossall St near Glandovey Rd,null,-43.51378,172.61018,,,,,,1
50852,50852,Harman St near Grove Rd,null,-43.54234,172.61705,,,,,,1
18756,18756,Burwood Rd near Clarevale St,null,-43.49061,172.68406,,,,,,1
33910,33910,Sparks Rd near Hoon Hay Rd,null,-43.56404,172.61101,,,,,,1
16583,16583,Rossall St near Leinster Rd,null,-43.51486,172.61236,,,,,,1
13072,13072,Clyde Rd near Fendalton Rd,null,-43.51563,172.59074,,,,,,1
15255,15255,Williams St near Ohoka Rd,null,-43.38817,172.65468,,,,,,1
51709,51709,Bromley Rd near Raymond Rd,null,-43.53889,172.69164,,,,,,1
39687,39687,University of Canterbury,null,-43.5239,172.57902,,,,,,1
38355,38355,Edgeware Rd near Madras St,null,-43.51335,172.64334,,,,,,1
42857,42857,Harewood Rd near Breens Rd,null,-43.48524,172.58108,,,,,,1
21935,21935,Effingham St near Marine Pde,null,-43.4907,172.72434,,,,,,1
26382,26382,Caspian St near Rocking Horse Rd,null,-43.53838,172.74148,,,,,,1
30879,30879,Soleares Ave near Valencia Ln,null,-43.56236,172.72135,,,,,,1
16107,16107,Wairakei Rd near Chislehurst Pl,null,-43.50863,172.60135,,,,,,1
19617,19617,Glandovey Rd,null,-43.51394,172.60561,,,,,,1
37029,37029,Tuam St near Olliviers Rd,null,-43.53536,172.66312,,,,,,1
17435,17435,Fendalton Rd near Wairarapa Tce,null,-43.52086,172.60816,,,,,,1
51713,51713,Bromley Rd near Raymond Rd,null,-43.53886,172.69131,,,,,,1
50868,50868,Harman St near Lincoln Rd,null,-43.54247,172.61611,,,,,,1
13040,13040,Dovedale Ave near Waimairi Rd,null,-43.52066,172.57223,,,,,,1
38340,38340,Edgeware Rd near Packe St,null,-43.51345,172.64479,,,,,,1
39673,39673,Greers Rd near Clyde Rd,null,-43.50459,172.58153,,,,,,1
14373,14373,Moorhouse Ave near Stewart St,null,-43.53982,172.62525,,,,,,1
12197,12197,Mairehau Rd near Medina Cres,null,-43.48516,172.70165,,,,,,1
25026,25026,Birchs Rd near Robinsons Rd,null,-43.61397,172.50875,,,,,,1
42842,42842,Clyde Rd near Ilam Rd,null,-43.50959,172.58938,,,,,,1
28539,28539,Blenheim Rd near Middleton Rd,null,-43.5385,172.58258,,,,,,1
24172,24172,Bentley St near Pinehurst Cres,null,-43.51889,172.54034,,,,,,1
26353,26353,Estuary Rd near Halsey St,null,-43.53421,172.73752,,,,,,1
47298,47298,Main North Rd near Link Rd,null,-43.42326,172.65126,,,,,,1
30867,30867,Soleares Ave near Mt Pleasant Rd,null,-43.56635,172.72093,,,,,,1
18739,18739,Burwood Rd near Carlsen St,null,-43.49587,172.68327,,,,,,1
50875,50875,Selwyn St near Hazeldean Rd,null,-43.54072,172.62173,,,,,,1
51721,51721,Maces Rd near Lupins Ln,null,-43.53533,172.69419,,,,,,1
17403,17403,Northcote Rd near Uxbridge St,null,-43.48411,172.60859,,,,,,1
53907,53907,Corsair Dr near Keene St,null,-43.55206,172.55371,,,,,,1
18741,18741,Burwood Rd near Lakewood Dr,null,-43.49354,172.68418,,,,,,1
39660,39660,Greers Rd near Clyde Rd,null,-43.50454,172.58177,,,,,,1
13055,13055,Waimairi Rd near Maydell St,null,-43.5179,172.57231,,,,,,1
37001,37001,St Martins Shops,null,-43.55713,172.65314,,,,,,1
14387,14387,Park Tce near Chester St W,null,-43.52798,172.62802,,,,,,1
42835,42835,Harewood Rd near Crofton Rd,null,-43.48322,172.57618,,,,,,1
30851,30851,Soleares Ave near Mt Pleasant Rd,null,-43.566,172.72035,,,,,,1
29874,29874,Blenheim Rd near Watts Rd,null,-43.53906,172.56151,,,,,,1
24186,24186,Emmett St near Bellbrook Cres,null,-43.49728,172.65535,,,,,,1
25035,25035,Buchanans Rd near Cicada Pl,null,-43.5329,172.53644,,,,,,1
50881,50881,Springs Rd near Marshs Rd,null,-43.56968,172.52225,,,,,,1
15238,15238,Williams St near Vickery St,null,-43.39335,172.65227,,,,,,1
37489,37489,Harewood Rd near Matsons Ave,null,-43.49543,172.60443,,,,,,1
53911,53911,Darfield Town centre,null,-43.49007,172.11381,,,,,,1
17419,17419,Fendalton Rd near Wood Ln,null,-43.52284,172.61192,,,,,,1
51732,51732,Maces Rd near Wickham St,null,-43.53505,172.69446,,,,,,1
15201,15201,Main North Rd near Spencerville Rd,null,-43.43314,172.64934,,,,,,1
15684,15684,Pages Rd near Charles Gallagher Pl,null,-43.51239,172.71369,,,,,,1
16531,16531,Wairakei Rd near Spalding St,null,-43.49738,172.58108,,,,,,1
40644,40644,Stanmore Rd near Draper St,null,-43.52385,172.65697,,,,,,1
25003,25003,Buchanans Rd,null,-43.5312,172.53083,,,,,,1
42826,42826,Yaldhurst Rd near Withells Rd,null,-43.52435,172.54696,,,,,,1
28518,28518,Main South Rd near Lowther St,null,-43.53987,172.55191,,,,,,1
26330,26330,Rocking Horse Rd near Heron St,null,-43.54282,172.74417,,,,,,1
42819,42819,Maidstone Rd near Farnham Pl,null,-43.51794,172.57544,,,,,,1
39656,39656,Greers Rd near Brookside Tce,null,-43.50108,172.58497,,,,,,1
12178,12178,Marine Pde near Cygnet St,null,-43.49281,172.72582,,,,,,1
45099,45099,Charlesworth St near Ti Rakau Dr,null,-43.55326,172.6967,,,,,,1
18718,18718,Tuam St near Fitzgerald Ave,null,-43.53545,172.65185,,,,,,1
50899,50899,Selwyn St near Moorhouse Ave,null,-43.54042,172.62189,,,,,,1
38329,38329,Straven Rd near Rochdale St,null,-43.52269,172.60156,,,,,,1
51745,51745,Ruru Rd near Hay St,null,-43.53158,172.69111,,,,,,1
13029,13029,Staveley St near Colina St,null,-43.51992,172.55655,,,,,,1
53924,53924,Waterloo Rd near Islington Ave,null,-43.54611,172.49241,,,,,,1
14360,14360,Moorhouse Ave near St David St,null,-43.53982,172.62903,,,,,,1
39641,39641,Northlands Platform A,null,-43.4932,172.61079,,,,,,1
37462,37462,Harewood Rd near Greers Rd,null,-43.49081,172.5946,,,,,,1
47267,47267,Birchs Rd near Grangewood Dr,null,-43.63356,172.491,,,,,,1
28525,28525,Blenheim Rd near Penn Pl,null,-43.53877,172.57887,,,,,,1
29857,29857,Grimseys Rd near Exton St,null,-43.47097,172.62769,,,,,,1
26348,26348,Estuary Rd near Ebbtide St,null,-43.53626,172.73841,,,,,,1
25493,25493,James St near North Blt,null,-43.63798,172.48777,,,,,,1
40628,40628,Stanmore Rd near Siddal Pl,null,-43.51803,172.65643,,,,,,1
24164,24164,Russley,null,-43.51776,172.53728,,,,,,1
51750,51750,Ruru Rd near Hay St,null,-43.53173,172.69169,,,,,,1
13038,13038,Solway Ave near Glenside Ave,null,-43.52046,172.56682,,,,,,1
53930,53930,Waterloo Rd near Islington Ave,null,-43.54633,172.49222,,,,,,1
38317,38317,Ilam Rd near Kirkwood Ave,null,-43.52746,172.57951,,,,,,1
15217,15217,Main North Rd near Wrights Rd,null,-43.4104,172.64922,,,,,,1
18014,18014,Burwood Rd near Helmsdale St,null,-43.48694,172.68281,,,,,,1
21665,21665,Effingham St near Beach Rd,null,-43.48661,172.7171,,,,,,1
47813,47813,Linwood Ave near Kidbrooke St,null,-43.54485,172.69236,,,,,,1
43456,43456,Lincoln Rd near Parade Ct,null,-43.54575,172.60836,,,,,,1
44787,44787,Oxford Rd near Fairview Briars,null,-43.30565,172.57759,,,,,,1
46961,46961,Main North Rd near Styx Mill Rd,null,-43.46648,172.61827,,,,,,1
18495,18495,Harrow St near Bordesley St,null,-43.53609,172.66537,,,,,,1
45630,45630,Prebbleton,null,-43.57994,172.51306,,,,,,1
17160,17160,Memorial Ave near Chilcombe St,null,-43.51486,172.58423,,,,,,1
10536,10536,Maidstone Rd near Solway Ave,null,-43.51693,172.56816,,,,,,1
11867,11867,Hoon Hay Rd near Barossa Ln,null,-43.57044,172.61164,,,,,,1
33655,33655,Selwyn St near Fairfield Ave,null,-43.54483,172.62174,,,,,,1
54596,54596,Rolleston College,null,-43.60548,172.38833,,,,,,1
54111,54111,Halswell Rd near Augustine Drive,null,-43.56233,172.57991,,,,,,1
32325,32325,Carmen Rd near Halwyn Dr,null,-43.53256,172.53121,,,,,,1
51086,51086,Aidenfield (near McMahon Dr),null,-43.56249,172.56678,,,,,,1
12719,12719,Halswell Rd near Nash Rd,null,-43.56698,172.57512,,,,,,1
29148,29148,Brougham St near Barrie St,null,-43.54783,172.6259,,,,,,1
53267,53267,McCormacks Bay Rd & Maffeys Rd WB,null,-43.55941,172.72521,,,,,,1
42596,42596,Clifton Tce and Main Rd,null,-43.56564,172.75526,,,,,,1
21677,21677,Aston Dr near Ballance St,null,-43.48367,172.72025,,,,,,1
23858,23858,Linwood Ave near Tilford St,null,-43.53839,172.68033,,,,,,1
38099,38099,Dunbars Rd near Ensign St,null,-43.57147,172.57051,,,,,,1
19353,19353,Harewood Rd near Nunweek Blvd,null,-43.48216,172.57371,,,,,,1
24707,24707,Springs Rd near Brynley St,null,-43.5509,172.53582,,,,,,1
44773,44773,White St near Parkhouse Dr,null,-43.31004,172.58725,,,,,,1
42111,42111,Heathcote,null,-43.57575,172.71058,,,,,,1
51093,51093,Aidenfield (near McMahon Dr),null,-43.56244,172.56643,,,,,,1
12726,12726,Papanui Rd near Paparoa St,null,-43.50191,172.61226,,,,,,1
14903,14903,Parker St near Kathleen Cres,null,-43.54301,172.51559,,,,,,1
53279,53279,Jones Rd near Curraghs Rd,null,-43.56593,172.44285,,,,,,1
33640,33640,Lyttelton St near Hennessy Pl,null,-43.56028,172.6122,,,,,,1
32791,32791,Brougham St near Albemarle St,null,-43.54734,172.64125,,,,,,1
54124,54124,Halswell Rd near Augustine Drive,null,-43.56309,172.57918,,,,,,1
32318,32318,Creyke Rd near Barlow St,null,-43.51959,172.5813,,,,,,1
18476,18476,North Parade,null,-43.50855,172.66304,,,,,,1
19324,19324,Harewood Rd,null,-43.48921,172.59122,,,,,,1
23827,23827,Radley St near Sheldon St,null,-43.55238,172.67414,,,,,,1
42583,42583,Main Rd near Augusta St,null,-43.56227,172.7392,,,,,,1
38081,38081,Halswell Rd near Nicholls Rd,null,-43.58117,172.56787,,,,,,1
54130,54130,Taiora/QEII,null,-43.49087,172.70733,,,,,,1
53280,53280,Jones Rd near Curraghs Rd,null,-43.56604,172.44295,,,,,,1
42107,42107,Port Hills Rd near Curries Rd,null,-43.56357,172.67679,,,,,,1
29124,29124,Selwyn St near Bolton Ave,null,-43.54972,172.62207,,,,,,1
26094,26094,Main North Rd near School Rd,null,-43.32296,172.66561,,,,,,1
10995,10995,Kilmarnock St near Deans Ave,null,-43.52677,172.61148,,,,,,1
32789,32789,Waltham Rd near Hastings St E,null,-43.54801,172.64667,,,,,,1
17156,17156,Burnside High School,null,-43.50902,172.57488,,,,,,1
38075,38075,Halswell Junction Rd near Sabys Rd,null,-43.58459,172.56861,,,,,,1
21654,21654,Aston Dr near Beach Rd,null,-43.48591,172.72091,,,,,,1
23836,23836,Colombo St near Wordsworth St,null,-43.54514,172.63675,,,,,,1
18005,18005,Burwood Rd near Newhaven St,null,-43.48882,172.68344,,,,,,1
42577,42577,Marriner St near Main Rd,null,-43.56683,172.75672,,,,,,1
40399,40399,Pages Rd near Breezes Rd,null,-43.51691,172.70242,,,,,,1
18482,18482,Kerrs Rd near Traynor Ln,null,-43.52188,172.68124,,,,,,1
53298,53298,Westfield Riccarton,null,-43.52999,172.59773,,,,,,1
10527,10527,Maidstone Rd,null,-43.51682,172.57144,,,,,,1
32770,32770,Brougham St near Brisbane St,null,-43.54733,172.64437,,,,,,1
33629,33629,Coronation St near Simeon St,null,-43.55122,172.61861,,,,,,1
29130,29130,Brougham St near Somerset Cres,null,-43.5475,172.62368,,,,,,1
11851,11851,Centaurus Rd near St Martins Rd,null,-43.56199,172.65031,,,,,,1
17125,17125,Memorial Ave near Otara St,null,-43.51672,172.58747,,,,,,1
42565,42565,Main Rd near Wakatu Ave,null,-43.56502,172.74157,,,,,,1
16273,16273,Rossall St near Office Rd,null,-43.5165,172.61358,,,,,,1
39396,39396,New Brighton Rd near Locksley Ave,null,-43.50401,172.68201,,,,,,1
40381,40381,Union St near Tovey St,null,-43.51796,172.73046,,,,,,1
23804,23804,Garlands Rd near Tanner St,null,-43.55625,172.67786,,,,,,1
20771,20771,Bower Ave near Thurso Pl,null,-43.49981,172.71031,,,,,,1
38068,38068,Halswell Junction Rd near Kinrara Pl,null,-43.58265,172.56485,,,,,,1
43418,43418,Ferry Rd near Rutherford St,null,-43.55128,172.68654,,,,,,1
19780,19780,Veitches Rd near Northfield Rd,null,-43.48145,172.60073,,,,,,1
29107,29107,Selwyn St near Cheviot St,null,-43.55247,172.62516,,,,,,1
22950,22950,Selwyn St near Fairfield Ave,null,-43.54481,172.62191,,,,,,1
10976,10976,Mona Vale Ave near Kilmarnock St,null,-43.52695,172.60918,,,,,,1
28254,28254,Major Hornbrook Rd near Rockview Pl,null,-43.57097,172.71853,,,,,,1
26073,26073,Estuary Rd near Cradock St,null,-43.52522,172.73346,,,,,,1
32762,32762,Waltham Rd near Mowbray St,null,-43.54397,172.64666,,,,,,1
55005,55005,Acacia Ave near Hibiscus Gr,null,-43.30995,172.5792,,,,,,1
33617,33617,Lyttelton St near Glynne Cres,null,-43.55765,172.60926,,,,,,1
19307,19307,Fendalton Rd near Quamby Pl,null,-43.51942,172.59887,,,,,,1
38052,38052,Halswell Junction Rd near Nicholls Rd,null,-43.581,172.56166,,,,,,1
20785,20785,Queenspark Dr near Chadbury St,null,-43.4815,172.70511,,,,,,1
39383,39383,Hawke St near Fenners Ln,null,-43.50694,172.72568,,,,,,1
42554,42554,Wakefield Ave near Nayland St,null,-43.56908,172.75897,,,,,,1
19798,19798,Highsted Rd near Ludhiana St,null,-43.47591,172.59773,,,,,,1
23815,23815,Garlands Rd near Maunsell St,null,-43.55586,172.67448,,,,,,1
16287,16287,Wairakei Rd near Grahams Rd,null,-43.49843,172.58369,,,,,,1
20303,20303,Queenspark Dr near Inwoods Rd,null,-43.48036,172.70211,,,,,,1
55014,55014,Broadway Pde near Munro Ln,null,-43.61624,172.40291,,,,,,1
29596,29596,Brougham St near James K Baxter Pl,null,-43.54795,172.62675,,,,,,1
29111,29111,Selwyn St near Bletsoe Ave,null,-43.55112,172.62365,,,,,,1
33601,33601,Cobham St near Evesham Cres,null,-43.55436,172.61124,,,,,,1
26087,26087,Woodend,null,-43.32039,172.66491,,,,,,1
10504,10504,Cranbrook Ave near Grahams Rd,null,-43.50126,172.57663,,,,,,1
54169,54169,Taiora/QEII,null,-43.49087,172.7074,,,,,,1
18469,18469,Wainoni Rd near Shortland St,null,-43.51244,172.69121,,,,,,1
32758,32758,Defoe Pl,null,-43.54737,172.6481,,,,,,1
10982,10982,Sir William Pickering Dr (SB),null,-43.49478,172.55924,,,,,,1
17102,17102,Memorial Ave near Spitfire Square,null,-43.49081,172.54674,,,,,,1
39377,39377,Keyes Rd near Rawson St,null,-43.50454,172.71945,,,,,,1
18430,18430,Wainoni Rd near Pannell Ave,null,-43.52033,172.68265,,,,,,1
42549,42549,Main Rd near Moncks Bay Ln,null,-43.56639,172.74459,,,,,,1
40368,40368,Pages Rd near Waitaki St,null,-43.5102,172.71901,,,,,,1
20759,20759,Bower Ave,null,-43.49472,172.71106,,,,,,1
46903,46903,Marshland Rd,null,-43.4934,172.66152,,,,,,1
44725,44725,King St near Andrew St,null,-43.3005,172.58962,,,,,,1
10953,10953,Kilmarnock St near Harakeke St,null,-43.52702,172.60612,,,,,,1
32743,32743,Ferry Rd near Alport Place,null,-43.55248,172.68882,,,,,,1
54176,54176,Ravensdale rise near Cumbria Lane,null,-43.58439,172.60679,,,,,,1
55022,55022,Broadway Pde near Munro Ln,null,-43.61625,172.40322,,,,,,1
11805,11805,Centaurus Rd near Sloan Tce,null,-43.57025,172.64013,,,,,,1
26056,26056,Oram Ave near Rodney St,null,-43.51335,172.73193,,,,,,1
29565,29565,Selwyn St near Bolton Ave,null,-43.54966,172.6222,,,,,,1
42531,42531,Nayland St near Stoke St,null,-43.57041,172.76045,,,,,,1
20763,20763,Bower Ave near Castletown Pl,null,-43.49755,172.71064,,,,,,1
38034,38034,Halswell Rd,null,-43.57753,172.56752,,,,,,1
39365,39365,Keyes Rd near Lonsdale St,null,-43.507,172.72125,,,,,,1
40352,40352,Pages Rd near Kearneys Rd,null,-43.52377,172.68811,,,,,,1
16260,16260,Wairakei Rd near Idris Rd,null,-43.50935,172.60369,,,,,,1
54182,54182,Ravensdale Rise at Ravensdale Park,null,-43.58628,172.60513,,,,,,1
11814,11814,Lyttelton St near Glue Pl,null,-43.56341,172.6144,,,,,,1
55033,55033,Faringdon Blvd near Ledbury Dr,null,-43.6185,172.38996,,,,,,1
10969,10969,Roydvale Ave near Sir William Pickering Dr,null,-43.49864,172.56159,,,,,,1
29577,29577,Antigua St near Fairfield Ave,null,-43.54445,172.62801,,,,,,1
18448,18448,Wainoni Rd near Bexley Rd,null,-43.50398,172.7063,,,,,,1
32736,32736,Soleares Ave near Toledo Pl,null,-43.56402,172.72107,,,,,,1
26060,26060,Estuary Rd near Beatty St,null,-43.52735,172.73436,,,,,,1
43058,43058,Maidstone Rd,null,-43.51997,172.57853,,,,,,1
44385,44385,Ferry Rd near Mackworth St,null,-43.54459,172.67029,,,,,,1
36760,36760,Hills Rd near Ailsa St,null,-43.50501,172.65174,,,,,,1
11460,11460,Clarence St near Lyndon St,null,-43.53561,172.60285,,,,,,1
33250,33250,Moorhouse Ave near Selwyn St,null,-43.54009,172.62017,,,,,,1
24776,24776,Emmett St near Orcades St,null,-43.49981,172.65646,,,,,,1
23448,23448,Garlands Rd near Maunsell St,null,-43.55597,172.67433,,,,,,1
54992,54992,Lady Isaac Dr near Jean Batten Ln,null,-43.6175,172.405,,,,,,1
53660,53660,Hereford St (Aspire),null,-43.53207,172.65261,,,,,,1
12317,12317,Williams St near Ohoka Rd,null,-43.38809,172.65453,,,,,,1
54512,54512,Main North Rd near Woodend Rd,null,-43.3195,172.6662,,,,,,1
51001,51001,Awatea Rd near Carrs Rd,null,-43.56102,172.55052,,,,,,1
51489,51489,The Runway near Kittyhawk Ave,null,-43.55427,172.55293,,,,,,1
38941,38941,Main South Rd near Garvins Rd,null,-43.54319,172.53754,,,,,,1
14974,14974,South City (Northbound),null,-43.53842,172.63653,,,,,,1
15825,15825,Main North Rd,null,-43.36395,172.66363,,,,,,1
10137,10137,Kilmarnock St near Harakeke St,null,-43.52689,172.60617,,,,,,1
37616,37616,Frankleigh St near Alvarez Pl,null,-43.55978,172.61947,,,,,,1
24309,24309,Epsom Rd near Carbine Pl,null,-43.53399,172.549,,,,,,1
43043,43043,Withells Rd near Westall Ln,null,-43.5063,172.55889,,,,,,1
46552,46552,Pages Rd near Ottawa Rd,null,-43.52185,172.69343,,,,,,1
23453,23453,Radley St near Chichester St,null,-43.55237,172.67399,,,,,,1
12329,12329,Williams St near Vickery St,null,-43.39244,172.65251,,,,,,1
50160,50160,Gerald St near Springs Rd,null,-43.64152,172.47326,,,,,,1
15839,15839,Main North Rd near Lees Rd,null,-43.35464,172.66479,,,,,,1
51491,51491,Corsair Dr near Gallagher Cl,null,-43.55064,172.54915,,,,,,1
38939,38939,Main South Rd near Hanworth Ave,null,-43.54345,172.54253,,,,,,1
33245,33245,Mathers Rd near Redgrave St,null,-43.56251,172.59199,,,,,,1
53673,53673,Manchester St near Welles St,null,-43.53753,172.63958,,,,,,1
24782,24782,Westminster St near Flockton St,null,-43.50312,172.64292,,,,,,1
54520,54520,Kilmore Street Town Hall,null,-43.52664,172.63512,,,,,,1
55858,55858,Wooldridge Rd near Harewood Rd,null,-43.48183,172.56827,,,,,,1
11473,11473,Barrington St near Hammond Pl,null,-43.55047,172.61111,,,,,,1
37600,37600,Barrington St near Bewdley St,null,-43.55222,172.61337,,,,,,1
10144,10144,Kedleston Dr near Brockhall Ln,null,-43.5127,172.54666,,,,,,1
51017,51017,Awatea Rd near Carrs Rd,null,-43.56107,172.55029,,,,,,1
42195,42195,Port Hills Rd near Ardtrea Ln,null,-43.57368,172.69983,,,,,,1
36756,36756,Hills Rd near Acheson Ave,null,-43.5009,172.65168,,,,,,1
47878,47878,Springs Rd near Blakes Rd,null,-43.57767,172.51523,,,,,,1
44363,44363,Wainoni Rd near Portsmouth St,null,-43.5088,172.69809,,,,,,1
10591,10591,Clyde Rd near Jeffreys Rd,null,-43.51345,172.59081,,,,,,1
24753,24753,Kensington Ave near Innes Rd,null,-43.4993,172.64008,,,,,,1
23424,23424,Garlands Rd near Tanner St,null,-43.55635,172.67758,,,,,,1
26934,26934,Pages Rd near Rowan Ave,null,-43.5147,172.70779,,,,,,1
13628,13628,Waimairi Rd near Wentworth St,null,-43.51354,172.57148,,,,,,1
50173,50173,Lowes Rd near Tennyson St,null,-43.60152,172.38463,,,,,,1
32387,32387,Fendalton Rd near Jacksons Rd,null,-43.51989,172.6045,,,,,,1
53687,53687,Manchester St near Allen St,null,-43.53816,172.63974,,,,,,1
54531,54531,Oxford Street near Winchester Street,null,-43.60238,172.72303,,,,,,1
33232,33232,Rowley Ave near Salmond St,null,-43.56523,172.58719,,,,,,1
11441,11441,Rose St near Hoon Hay Rd,null,-43.56904,172.6126,,,,,,1
36741,36741,Hills Rd near Westminster St,null,-43.49723,172.64976,,,,,,1
12774,12774,Halswell Rd near Rowley Ave,null,-43.55802,172.58756,,,,,,1
42182,42182,Opawa Rd near Mary Mclean Pl,null,-43.55804,172.67237,,,,,,1
51029,51029,Woodham Rd near Avonside Dr,null,-43.52516,172.66163,,,,,,1
20390,20390,Queenspark Dr near Broadhaven Ave,null,-43.47317,172.69561,,,,,,1
53205,53205,Hereford St near Montreal St,null,-43.53211,172.63098,,,,,,1
10116,10116,Kilmarnock St near Deans Ave,null,-43.52665,172.61158,,,,,,1
38925,38925,Main South Rd near Harvard Ave,null,-43.54252,172.54785,,,,,,1
26947,26947,Pages Rd near Knightsbridge Ln,null,-43.51587,172.70494,,,,,,1
24769,24769,Kensington Ave near Innes Rd,null,-43.50096,172.6416,,,,,,1
43027,43027,Kotare St near Medbury Tce,null,-43.52203,172.59215,,,,,,1
46534,46534,Rolleston Dr near Othello Dr,null,-43.59801,172.38074,,,,,,1
42176,42176,Port Hills Rd near Stedley Pl,null,-43.57573,172.70305,,,,,,1
23430,23430,Wilsons Rd,null,-43.5622,172.65701,,,,,,1
15818,15818,Williams St near Coups Tce,null,-43.37564,172.66287,,,,,,1
10128,10128,Mona Vale Ave near Kilmarnock St,null,-43.52682,172.60934,,,,,,1
53694,53694,Ravensdale Rise near Woodside Common,null,-43.58139,172.60608,,,,,,1
36739,36739,Innes Rd near Hills Rd,null,-43.49558,172.64695,,,,,,1
13637,13637,Waimairi Rd near Greers Rd,null,-43.51358,172.57169,,,,,,1
55870,55870,Orchard Rd near Wairakei Rd,null,-43.48587,172.54902,,,,,,1
38918,38918,Main South Rd near Craven St,null,-43.5355,172.56112,,,,,,1
50187,50187,Gerald St near Springs Rd,null,-43.64162,172.47327,,,,,,1
53214,53214,Bus Interchange (Intercity stop),null,-43.53426,172.63708,,,,,,1
32373,32373,Fendalton Rd near Glandovey Rd,null,-43.5189,172.59538,,,,,,1
51038,51038,Woodham Rd near Patten St,null,-43.52516,172.66489,,,,,,1
54549,54549,Acacia Avenue near Maple Pl,null,-43.31148,172.57962,,,,,,1
12301,12301,Kaiapoi (Police Station),null,-43.38156,172.65899,,,,,,1
12788,12788,Main North Rd near Lagan St,null,-43.45411,172.6264,,,,,,1
23889,23889,Hargood St near Oban Pl,null,-43.54547,172.68102,,,,,,1
42169,42169,Port Hills Rd near Horotane Valley Rd,null,-43.57219,172.69472,,,,,,1
23407,23407,Garlands Rd near Cumnor Tce,null,-43.55665,172.68029,,,,,,1
44344,44344,Mairehau Rd near Putake Dr,null,-43.47972,172.69268,,,,,,1
32360,32360,Burnside High School,null,-43.50905,172.57539,,,,,,1
24730,24730,Flockton St near Archer St,null,-43.50466,172.64376,,,,,,1
50194,50194,Aylesbury Rd near Two Chain Rd,null,-43.60453,172.30704,,,,,,1
51040,51040,Woodham Rd near Linwood Ave,null,-43.52528,172.6612,,,,,,1
33213,33213,Mccarthy St near Rowley Ave,null,-43.56351,172.58871,,,,,,1
53222,53222,Ferry Rd near Nursery Rd,null,-43.53948,172.65556,,,,,,1
54554,54554,Jones Rd near Alston Rd,null,-43.57271,172.42492,,,,,,1
33693,33693,Cobham St near Clent Ln,null,-43.55554,172.60922,,,,,,1
55889,55889,Orchard Rd near Wairakei Rd,null,-43.48661,172.54842,,,,,,1
38902,38902,Main South Rd near Weaver Pl,null,-43.5379,172.55654,,,,,,1
11425,11425,Memorial Ave near Hampton Pl,null,-43.51082,172.57782,,,,,,1
36725,36725,Innes Rd near Mahars Rd,null,-43.49671,172.64464,,,,,,1
29182,29182,Daniels Rd near Hannah Pl,null,-43.47838,172.62028,,,,,,1
43487,43487,Selwyn St Shops,null,-43.54823,172.62175,,,,,,1
24748,24748,Flockton St near Carrick St,null,-43.50637,172.64531,,,,,,1
43004,43004,Main South Rd near Bowman Pl,null,-43.53399,172.56403,,,,,,1
42153,42153,Martindales Rd near Station Rd,null,-43.57598,172.70775,,,,,,1
23411,23411,Wilsons Rd near Beckford Rd,null,-43.55908,172.65463,,,,,,1
32356,32356,Ferry Rd near Aldwins Rd,null,-43.54293,172.66633,,,,,,1
36718,36718,Innes Rd near Mahars Rd,null,-43.49816,172.64169,,,,,,1
13616,13616,Grahams Rd near Powell Cres,null,-43.50993,172.56574,,,,,,1
51055,51055,Woodham Rd near Brittan St,null,-43.52528,172.66401,,,,,,1
53233,53233,Ferry Rd near Lancaster St,null,-43.53912,172.65374,,,,,,1
54565,54565,Jones Rd near Alston Rd,null,-43.57265,172.42488,,,,,,1
23891,23891,Colombo St near Walton St,null,-43.54929,172.63686,,,,,,1
46990,46990,Rocking Horse Rd near Plover St,null,-43.54832,172.74656,,,,,,1
10100,10100,Kahu Rd near Titoki St,null,-43.52626,172.6001,,,,,,1
12761,12761,Papanui Rd near Holly Rd,null,-43.51688,172.6253,,,,,,1
29195,29195,Daniels Rd,null,-43.47826,172.6178,,,,,,1
20357,20357,Fitzgerald Ave near Alexandra St,null,-43.5225,172.65072,,,,,,1
46988,46988,Supa Centa Terminus,null,-43.46069,172.6251,,,,,,1
47832,47832,Warrington St near Woodville St,null,-43.50803,172.65001,,,,,,1
19369,19369,Harewood Rd near Cotswold Ave,null,-43.48658,172.5843,,,,,,1
42148,42148,Port Hills Rd near Castleview Ln,null,-43.573,172.69693,,,,,,1
43473,43473,Lincoln Rd near Sylvan St,null,-43.55194,172.59752,,,,,,1
21683,21683,North Shore,null,-43.48104,172.71939,,,,,,1
23862,23862,Radley St near Cumnor Tce,null,-43.5482,172.67814,,,,,,1
24711,24711,Springs Rd near Sioux Ave,null,-43.549,172.53954,,,,,,1
51064,51064,Woodham Rd near Tancred St,null,-43.52527,172.6702,,,,,,1
14919,14919,Gilberthorpes Rd near Gregory Ave,null,-43.54,172.5158,,,,,,1
53246,53246,Tuam St near Duke St,null,-43.53528,172.64791,,,,,,1
54577,54577,Acacia Avenue,null,-43.31183,172.57986,,,,,,1
11880,11880,Cashmere Rd,null,-43.56694,172.63068,,,,,,1
26906,26906,Pages Rd near Fir Tree Ln,null,-43.51615,172.70458,,,,,,1
42130,42130,Heathcote,null,-43.57585,172.71045,,,,,,1
18046,18046,Marine Pde near Cygnet St,null,-43.49225,172.72549,,,,,,1
44794,44794,Bush St near Strachan Pl,null,-43.31531,172.59053,,,,,,1
19376,19376,Colombo St near Purchas St,null,-43.5187,172.63651,,,,,,1
23870,23870,Radley St near Tavender St,null,-43.55027,172.67572,,,,,,1
44316,44316,Burwood Hospital - Mairehau Rd,null,-43.482,172.68362,,,,,,1
51072,51072,Woodham Rd near Ngarimu St,null,-43.52525,172.67369,,,,,,1
24724,24724,Briggs Rd near Innes Rd,null,-43.49516,172.65043,,,,,,1
53251,53251,Ferry Rd (Ritchies Depot EB),null,-43.53765,172.64825,,,,,,1
11418,11418,Barrington St near Bewdley St,null,-43.55204,172.61292,,,,,,1
54583,54583,Acacia Avenue near Hibiscus Grove,null,-43.30935,172.57906,,,,,,1
33664,33664,Coronation St near Selwyn St,null,-43.54957,172.6214,,,,,,1
54107,54107,Skyhawk Rd near Kittyhawk Avenue,null,-43.55452,172.55969,,,,,,1
43460,43460,Wairakei Rd near Grahams Rd,null,-43.49799,172.58226,,,,,,1
32339,32339,Main North Rd near Lagan St,null,-43.4541,172.62672,,,,,,1
11898,11898,Riccarton Rd near Balgay St,null,-43.53115,172.58277,,,,,,1
12742,12742,Papanui Rd near Clare Rd,null,-43.51839,172.62638,,,,,,1
10090,10090,Kahu Rd near Tui St,null,-43.52516,172.59742,,,,,,1
52728,52728,Two Chain Rd near Walkers Rd,null,-43.59541,172.34628,,,,,,1
12270,12270,Main North Rd near Woodend Beach Rd,null,-43.33381,172.66636,,,,,,1
46048,46048,Woodend,null,-43.32027,172.66505,,,,,,1
38420,38420,Shirley Rd near Stapletons Rd,null,-43.50802,172.65648,,,,,,1
47377,47377,Blenheim Rd near Acheron Dr,null,-43.53857,172.58434,,,,,,1
36242,36242,Main Rd near St Andrews Hill Rd,null,-43.55815,172.71024,,,,,,1
25589,25589,Kirk Rd near Mahoe St,null,-43.55331,172.4733,,,,,,1
26437,26437,Estuary Rd near Cradock St,null,-43.5254,172.7337,,,,,,1
40745,40745,Cavendish Rd near Northcote Rd,null,-43.48368,172.60626,,,,,,1
28616,28616,St Andrews Hill Rd near Marama Cres,null,-43.5584,172.71775,,,,,,1
22071,22071,Selwyn St Shops,null,-43.54835,172.62192,,,,,,1
42916,42916,Opawa Rd near Manatu Ln,null,-43.54939,172.65676,,,,,,1
15303,15303,Ferry Rd near Catherine St,null,-43.55047,172.6853,,,,,,1
18815,18815,Harrow St near Glasgow St,null,-43.53722,172.6679,,,,,,1
13126,13126,Kendal Ave near Whitby St,null,-43.49895,172.57055,,,,,,1
16633,16633,Wairakei Rd near Todd Ave,null,-43.49118,172.57144,,,,,,1
54916,54916,Faringdon Blvd near Dynes Road,null,-43.61358,172.38586,,,,,,1
51404,51404,Dallington,null,-43.51313,172.67401,,,,,,1
17966,17966,Riccarton Rd near Harakeke St,null,-43.52941,172.6053,,,,,,1
38892,38892,Main South Rd near Weaver Pl,null,-43.53768,172.55664,,,,,,1
15792,15792,Williams St near Carew St,null,-43.38645,172.65547,,,,,,1
40732,40732,Williams St near Carew St,null,-43.38589,172.65555,,,,,,1
26444,26444,Kippenberger Ave near Devlin Ave,null,-43.30115,172.61281,,,,,,1
24268,24268,Cutts Rd near Springhill St,null,-43.52024,172.54362,,,,,,1
28628,28628,Moorhouse Ave near Orbell St,null,-43.5401,172.63268,,,,,,1
22085,22085,Coronation St near Selwyn St,null,-43.54989,172.62112,,,,,,1
17978,17978,Lincoln Rolleston Rd near Rolleston Dr,null,-43.59418,172.38611,,,,,,1
52744,52744,Izone Dr,null,-43.58715,172.37439,,,,,,1
45184,45184,Colombo St near Canon St,null,-43.51597,172.63667,,,,,,1
18827,18827,Harrow St near Bordesley St,null,-43.5363,172.66554,,,,,,1
12289,12289,Main North Rd near Sandhill Rd,null,-43.34028,172.66646,,,,,,1
13135,13135,Clyde Rd near Arts Rd,null,-43.5241,172.5884,,,,,,1
15319,15319,Main North Rd,null,-43.47725,172.61703,,,,,,1
51415,51415,Dynes Rd near Springston Rolleston Rd,null,-43.6097,172.39382,,,,,,1
54928,54928,Kirwee,null,-43.5007,172.2164,,,,,,1
10074,10074,Kotare St near Roa Rd,null,-43.52289,172.59457,,,,,,1
40721,40721,Main North near Loftus St,null,-43.49567,172.60844,,,,,,1
24234,24234,Emmett St near Jebson St,null,-43.50403,172.65549,,,,,,1
22059,22059,Cobham St near Clent Ln,null,-43.55565,172.60922,,,,,,1
26416,26416,Union St near Mountbatten St,null,-43.51646,172.72941,,,,,,1
33191,33191,Milton St near Selwyn St,null,-43.55369,172.62777,,,,,,1
17945,17945,Lowes Rd near Goulds Rd,null,-43.59914,172.39026,,,,,,1
53602,53602,Caulfield Ave near Piper St,null,-43.5756,172.54618,,,,,,1
38885,38885,Main South Rd near Craven St,null,-43.53512,172.56156,,,,,,1
37556,37556,Barrington St near Wychbury St,null,-43.55525,172.61676,,,,,,1
15763,15763,Ferry Rd near Dyers Rd,null,-43.55427,172.69255,,,,,,1
52759,52759,Link Dve,null,-43.58414,172.37874,,,,,,1
51427,51427,Dynes Rd near Faringdon Blvd,null,-43.61344,172.38517,,,,,,1
12258,12258,Marshland Rd near Hammersley Ave,null,-43.50357,172.66231,,,,,,1
54937,54937,Kirwee Tavern,null,-43.49979,172.21443,,,,,,1
38408,38408,Riccarton Rd near Newnham Tce,null,-43.53138,172.57807,,,,,,1
16614,16614,Wairakei Rd near Greers Rd,null,-43.49998,172.58683,,,,,,1
17950,17950,Masefield Dr near Durrell Wy,null,-43.59681,172.39193,,,,,,1
12262,12262,Lake Terrace Rd near Oregon Pl,null,-43.49614,172.67885,,,,,,1
38871,38871,Church Corner,null,-43.53198,172.57312,,,,,,1
45166,45166,Birchs Rd near Glenwood Dr,null,-43.5881,172.50969,,,,,,1
15771,15771,Ferry Rd near Waterman Pl,null,-43.55674,172.69862,,,,,,1
37541,37541,Barrington St near Neville St,null,-43.5506,172.61149,,,,,,1
28600,28600,Major Hornbrook Rd near Muritai Tce,null,-43.56714,172.71605,,,,,,1
24247,24247,Amyes Rd near Shands Rd,null,-43.54565,172.52574,,,,,,1
29937,29937,Daniels Rd near Rathlin St,null,-43.47874,172.62616,,,,,,1
36219,36219,Gloucester St near Latimer Square,null,-43.52989,172.64138,,,,,,1
23392,23392,Sydenham Shops,null,-43.54645,172.63661,,,,,,1
52763,52763,Tennyson St near Moore St,null,-43.59525,172.38267,,,,,,1
22063,22063,Cobham St near Evesham Cres,null,-43.55457,172.61107,,,,,,1
40709,40709,Northcote Rd near Fenchurch St,null,-43.48433,172.61374,,,,,,1
10088,10088,Kotare St near Kahu Rd,null,-43.52468,172.59594,,,,,,1
46011,46011,Birchs Rd near Glenwood Dr,null,-43.58774,172.5098,,,,,,1
50102,50102,Jones Rd near Weedons Ross Rd,null,-43.5787,172.40909,,,,,,1
18804,18804,Kerrs Rd near Dunarnan St,null,-43.52235,172.68143,,,,,,1
50586,50586,Birmingham Dr near Halls Pl,null,-43.54494,172.59309,,,,,,1
54944,54944,West Melton Primary School,null,-43.52274,172.36969,,,,,,1
16622,16622,Wairakei Rd near Charlcott St,null,-43.49401,172.57541,,,,,,1
51436,51436,Broadlands Dve near Goulds Rd,null,-43.60664,172.38401,,,,,,1
53618,53618,Caulfield Ave near Piper St,null,-43.57558,172.54604,,,,,,1
11384,11384,Barrington Mall (Barrington St),null,-43.55702,172.61875,,,,,,1
25543,25543,Waterloo Rd near Kissel St,null,-43.55313,172.47641,,,,,,1
29900,29900,Daniels Rd,null,-43.47837,172.61742,,,,,,1
26877,26877,Rangiora (Ashley St),null,-43.30255,172.59609,,,,,,1
24690,24690,Springs Rd near Dufek Cres,null,-43.54965,172.53795,,,,,,1
50593,50593,Birmingham Dr near Halls Pl,null,-43.54458,172.5919,,,,,,1
36203,36203,Major Hornbrook Rd near St Andrews Hill Rd,null,-43.55984,172.71761,,,,,,1
51443,51443,Caulfield Ave & Gosling Cres,null,-43.57861,172.54738,,,,,,1
52771,52771,Broadlands Dr near Goulds Rd,null,-43.60673,172.38398,,,,,,1
15744,15744,Ferry Rd near Palinurus Rd,null,-43.55176,172.68775,,,,,,1
38863,38863,Main South Rd near English St,null,-43.5337,172.56427,,,,,,1
39710,39710,Shirley Rd near Slater St,null,-43.50815,172.65323,,,,,,1
53625,53625,Richmond Ave near Kruger Ave,null,-43.5723,172.54169,,,,,,1
14413,14413,Colombo St near Salisbury St,null,-43.52413,172.63652,,,,,,1
12236,12236,Main North Rd,null,-43.44077,172.63511,,,,,,1
54959,54959,Faringdon Boulevard near Broomfield Dr,null,-43.61349,172.38607,,,,,,1
17921,17921,Fendalton Rd near Mona Vale Ave,null,-43.52021,172.60732,,,,,,1
37539,37539,Whiteleigh Ave near Troup Dr,null,-43.54006,172.60422,,,,,,1
13573,13573,Withells Rd near Avonhead Rd,null,-43.50452,172.55992,,,,,,1
10061,10061,Kotare St near Medbury Tce,null,-43.52214,172.59204,,,,,,1
24223,24223,Emmett St,null,-43.50059,172.656,,,,,,1
33162,33162,Milton St near Antrim St,null,-43.5506,172.63375,,,,,,1
29916,29916,Daniels Rd near Mottram St,null,-43.47863,172.62351,,,,,,1
23371,23371,Colombo St near Lawson St,null,-43.54434,172.63659,,,,,,1
54963,54963,Springston - Rolleston Road near Geldard Dr,null,-43.61399,172.39797,,,,,,1
52785,52785,Dynes Rd near Faringdon Blvd,null,-43.6135,172.3852,,,,,,1
26883,26883,Kippenberger Ave near East Belt,null,-43.30256,172.60116,,,,,,1
11397,11397,Hoon Hay Rd near Blakiston St,null,-43.57097,172.61199,,,,,,1
47320,47320,Town Hall,null,-43.30405,172.58982,,,,,,1
12243,12243,Marshland Rd near Joy St,null,-43.50094,172.66207,,,,,,1
15759,15759,Ferry Rd near Alport Pl,null,-43.55286,172.68984,,,,,,1
53639,53639,Richmond Ave near Kruger Ave,null,-43.5722,172.54198,,,,,,1
44290,44290,Smith St near Cass St,null,-43.37835,172.65901,,,,,,1
16605,16605,Strowan Rd near Normans Rd,null,-43.51064,172.60734,,,,,,1
17932,17932,Riccarton Rd near Bartlett St,null,-43.52903,172.60999,,,,,,1
39706,39706,Merivale Mall,null,-43.51076,172.62063,,,,,,1
38859,38859,Main South Rd near Curletts Rd,null,-43.53271,172.56617,,,,,,1
44288,44288,Ashley St near River Rd,null,-43.2897,172.59278,,,,,,1
24674,24674,Masham Rd near Rosella St,null,-43.52229,172.53284,,,,,,1
25527,25527,Waterloo Rd,null,-43.54225,172.50282,,,,,,1
17909,17909,Tennyson St near Michelangelo Dr,null,-43.59878,172.38556,,,,,,1
37518,37518,Lyttelton St,null,-43.56342,172.6146,,,,,,1
52792,52792,Dynes Rd near Springston Rolleston Rd,null,-43.60976,172.39388,,,,,,1
15728,15728,Linwood Ave near Tilford St,null,-43.53827,172.68101,,,,,,1
33158,33158,Mathers Rd near Waters St,null,-43.55996,172.5963,,,,,,1
54971,54971,Springston - Rolleston Road near Ed Hillary Dr,null,-43.61393,172.39814,,,,,,1
53641,53641,Knights Stream School,null,-43.5702,172.5385,,,,,,1
13541,13541,Withells Rd near Westall Ln,null,-43.50657,172.55859,,,,,,1
12695,12695,Halswell Rd near Hendersons Rd,null,-43.56142,172.58179,,,,,,1
12215,12215,Kaiapoi (McDonalds),null,-43.38453,172.65618,,,,,,1
36668,36668,Main North Rd near Meadow St,null,-43.48883,172.61506,,,,,,1
42097,42097,Port Hills Rd near Vega Pl,null,-43.57032,172.68601,,,,,,1
37980,37980,Main North Rd near Cranford St,null,-43.48691,172.61626,,,,,,1
32292,32292,Main North Rd near Spencerville Rd,null,-43.43239,172.64956,,,,,,1
24688,24688,Carmen Rd near Steadman Rd,null,-43.52884,172.53338,,,,,,1
14409,14409,Park Tce near Bealey Ave,null,-43.52183,172.62658,,,,,,1
51470,51470,The Runway near Dalwood Dve,null,-43.55572,172.55003,,,,,,1
50141,50141,Lowes Rd near Rembrandt Dr,null,-43.60357,172.37984,,,,,,1
54985,54985,Lady Isaac Dr near Jean Batten Ln,null,-43.61749,172.40489,,,,,,1
33143,33143,Mathers Rd near Waters St,null,-43.55984,172.59627,,,,,,1
55836,55836,Wooldridge Rd near Wairakei Rd,null,-43.48816,172.56628,,,,,,1
17913,17913,Lowes Rd near Goulds Rd,null,-43.59907,172.39017,,,,,,1
44274,44274,Williams St near Cass St,null,-43.38056,172.66108,,,,,,1
53656,53656,Hereford St (Aspire),null,-43.53195,172.65272,,,,,,1
15737,15737,Ferry Rd near Settlers Cres,null,-43.55778,172.70462,,,,,,1
11378,11378,Barrington Mall (Barrington St),null,-43.55638,172.61782,,,,,,1
54508,54508,Halkett Rd near Rossington Dr,null,-43.51556,172.37642,,,,,,1
13556,13556,Withells Rd near Merrin St,null,-43.50993,172.5568,,,,,,1
38837,38837,Church Corner,null,-43.53179,172.57259,,,,,,1
12227,12227,Williams St near Courtenay Drive,null,-43.39091,172.65322,,,,,,1
17564,17564,Commodore Hotel,null,-43.49724,172.55618,,,,,,1
43851,43851,Gloucester St near Stanmore Rd,null,-43.52976,172.65743,,,,,,1
37174,37174,Woodham Rd near Carnarvon St,null,-43.52524,172.67731,,,,,,1
15388,15388,Main North Rd near Factory Rd,null,-43.44141,172.63496,,,,,,1
38023,38023,Halswell Rd,null,-43.57759,172.56776,,,,,,1
18891,18891,Hardy St near Beresford St,null,-43.50878,172.72465,,,,,,1
39354,39354,Rookwood Ave near Marriotts Rd,null,-43.49593,172.7142,,,,,,1
20737,20737,Queenspark Dr near Bower Ave,null,-43.48219,172.71126,,,,,,1
44702,44702,Main North Rd near Holland Dr,null,-43.39435,172.65179,,,,,,1
54078,54078,Innes Road near Severn Street,null,-43.50181,172.63447,,,,,,1
50950,50950,Pegasus Blvd near Whakatipu St,null,-43.31635,172.68917,,,,,,1
32727,32727,Soleares Ave near Cadiz Ln,null,-43.56156,172.72132,,,,,,1
19746,19746,Edgeware Village,null,-43.51428,172.63667,,,,,,1
10930,10930,Grahams Rd near Powell Cres,null,-43.50986,172.565,,,,,,1
37161,37161,Cranford St near Cornwall St,null,-43.51255,172.63832,,,,,,1
38010,38010,Halswell Rd near Milns Rd,null,-43.57428,172.56958,,,,,,1
38496,38496,Barbadoes St near Edward Ave,null,-43.51141,172.64602,,,,,,1
19751,19751,Aylsham Ln near Regents Park Dr,null,-43.47033,172.60872,,,,,,1
40334,40334,Pages Rd near Buckleys Rd,null,-43.52584,172.68362,,,,,,1
42512,42512,Buchanans Rd near Hei Hei Rd,null,-43.53012,172.52787,,,,,,1
54084,54084,Corsair Drive,null,-43.55349,172.55615,,,,,,1
26041,26041,Union St near Mountbatten St,null,-43.51678,172.72981,,,,,,1
29554,29554,Brougham St near Kipling St,null,-43.54778,172.62384,,,,,,1
10948,10948,Carlton Mill Rd near Hewitts Rd,null,-43.52193,172.62069,,,,,,1
32715,32715,Mccormacks Bay Rd near Soleares Ave,null,-43.55766,172.72304,,,,,,1
39349,39349,New Brighton Rd near Kingsford St,null,-43.50525,172.67546,,,,,,1
15361,15361,Belfast,null,-43.44365,172.6335,,,,,,1
39331,39331,New Brighton Rd near Queensbury St,null,-43.5053,172.67815,,,,,,1
19722,19722,Airport/Antarctic Centre,null,-43.48853,172.5462,,,,,,1
38483,38483,Warrington St Shops,null,-43.50905,172.64583,,,,,,1
13188,13188,Cranbrook Ave near Grahams Rd,null,-43.50136,172.57696,,,,,,1
18870,18870,Wainoni Rd near Hampshire St,null,-43.50505,172.70459,,,,,,1
37157,37157,Waimairi Rd near Bowen St,null,-43.53025,172.57416,,,,,,1
10907,10907,Teesdale St near Tay St,null,-43.49666,172.56898,,,,,,1
42508,42508,Main Rd near Mulgans Trk,null,-43.56626,172.74729,,,,,,1
40323,40323,Stanmore Rd near Trinity Ln,null,-43.52825,172.65717,,,,,,1
54097,54097,Skyhawk near Kittyhawk Avenue,null,-43.55507,172.56064,,,,,,1
26492,26492,Estuary Rd,null,-43.52266,172.73234,,,,,,1
10911,10911,Grahams Rd near Powell Cres,null,-43.50923,172.56765,,,,,,1
38006,38006,Halswell Rd near Lillian St,null,-43.57488,172.56944,,,,,,1
32704,32704,Waltham Rd near Austin St,null,-43.55052,172.64689,,,,,,1
51824,51824,Christchurch Hospital Main Stop EB,null,-43.53524,172.62745,,,,,,1
42971,42971,Brougham St near Brisbane St,null,-43.54757,172.64413,,,,,,1
39320,39320,New Brighton Rd near Queensbury St,null,-43.50541,172.67823,,,,,,1
37142,37142,Frankleigh St,null,-43.56122,172.61713,,,,,,1
40310,40310,Southern Park and Ride (South Belt),null,-43.31861,172.5923,,,,,,1
38477,38477,Barbadoes St near Edward Ave,null,-43.5114,172.64585,,,,,,1
13190,13190,Kendal Ave near Charlcott St,null,-43.49826,172.57192,,,,,,1
10924,10924,Teesdale St near Deepdale St,null,-43.49389,172.5665,,,,,,1
29531,29531,Cranford St near Main North Rd,null,-43.48856,172.61717,,,,,,1
51830,51830,Moorhouse Slip Nth near Colombo St,null,-43.53983,172.63703,,,,,,1
50984,50984,Mairehau Rd ( Spinal Unit),null,-43.48124,172.68655,,,,,,1
18889,18889,Beresford St,null,-43.50841,172.72778,,,,,,1
40784,40784,Hussey Rd,null,-43.459,172.60889,,,,,,1
15342,15342,Supa Centa,null,-43.46012,172.62281,,,,,,1
38465,38465,"Warrington St Shops ",null,-43.5091,172.646,,,,,,1
37135,37135,Main Nth Rd near Loftus St,null,-43.4959,172.60839,,,,,,1
24299,24299,Russley Rd near Dinton St,null,-43.51883,172.53513,,,,,,1
42963,42963,Cranford St near Berwick St,null,-43.50828,172.63797,,,,,,1
40306,40306,Pages Rd near Ottawa Rd,null,-43.52227,172.69262,,,,,,1
26471,26471,Oram Ave near Hood St,null,-43.51057,172.73084,,,,,,1
29985,29985,Daniels Rd near Inca Pl,null,-43.47864,172.62638,,,,,,1
16679,16679,Sawyers Arms Rd near Cotswold Ave,null,-43.48001,172.58953,,,,,,1
19705,19705,Purchas St near Colombo St,null,-43.5185,172.63668,,,,,,1
50997,50997,Mairehau Rd (Spinal Unit),null,-43.4815,172.68597,,,,,,1
18862,18862,Buckleys Rd and Dacre St,null,-43.52897,172.67919,,,,,,1
14024,14024,Gloucester St near Fitzgerald Ave,null,-43.52989,172.64888,,,,,,1
38454,38454,Edgeware Rd near Caledonian Rd,null,-43.5135,172.63588,,,,,,1
13174,13174,Cranbrook Ave near Glencoe St,null,-43.49995,172.57475,,,,,,1
42959,42959,Brougham St near Waltham Rd,null,-43.54757,172.64612,,,,,,1
29992,29992,Redwood,null,-43.46812,172.62371,,,,,,1
26485,26485,Pages Rd near Waitaki St,null,-43.50984,172.71954,,,,,,1
26002,26002,Woodend Rd near Greenwood Cl,null,-43.32056,172.66022,,,,,,1
17538,17538,Memorial Ave near Avice Hill Reserve,null,-43.49867,172.55839,,,,,,1
52700,52700,Link Dve,null,-43.58404,172.3786,,,,,,1
37126,37126,Harewood Rd near Wilmot St,null,-43.49231,172.59821,,,,,,1
15357,15357,Main North Rd near Belfast Rd,null,-43.44947,172.62968,,,,,,1
46076,46076,Mandeville St,null,-43.53594,172.60694,,,,,,1
39308,39308,Travis Rd near Blue Gum Pl,null,-43.49409,172.70653,,,,,,1
19714,19714,Airport/Antarctic Centre,null,-43.48826,172.54628,,,,,,1
12291,12291,Main North Rd near Kaiapoi Golf Club,null,-43.37182,172.66361,,,,,,1
37594,37594,Whiteleigh Ave near Jack Hinton Dr,null,-43.54452,172.60806,,,,,,1
16651,16651,Gardiners Rd near St Ives St,null,-43.48229,172.58156,,,,,,1
13142,13142,Clyde Rd near Fendalton Rd,null,-43.51757,172.59045,,,,,,1
40766,40766,O'Neill Ave near Beechwood Dr,null,-43.46308,172.61913,,,,,,1
26459,26459,Pages Rd near Shortland St,null,-43.51897,172.69882,,,,,,1
28637,28637,Fitzgerald Ave near Avonside Dr,null,-43.52771,172.65071,,,,,,1
42944,42944,Stanmore Rd near Lychgate Cl,null,-43.52608,172.65715,,,,,,1
22092,22092,Halswell Rd and Nash Rd,null,-43.5676,172.57424,,,,,,1
29963,29963,Grimseys Rd near Mulberry Pl,null,-43.47652,172.62709,,,,,,1
24275,24275,Cutts Rd near Delaware Cres,null,-43.52217,172.54252,,,,,,1
38449,38449,Springfield Rd near Pitt Pl,null,-43.5131,172.63245,,,,,,1
52716,52716,Izone Dr,null,-43.58721,172.37416,,,,,,1
50538,50538,Rolleston (Kidman St),null,-43.59015,172.38333,,,,,,1
40750,40750,Norwich Qy near Dublin St,null,-43.60325,172.71888,,,,,,1
38431,38431,Edgeware Rd near Bishop St,null,-43.51348,172.6416,,,,,,1
28644,28644,Moorhouse Ave near Moorhouse Ave Slip S,null,-43.54009,172.63591,,,,,,1
42937,42937,Opawa Rd near Brabourne St,null,-43.56173,172.67511,,,,,,1
42928,42928,Wairakei Rd near Pitcairn Cres,null,-43.50436,172.59644,,,,,,1
29971,29971,Grimseys Rd near Prestons Rd,null,-43.4738,172.62745,,,,,,1
54900,54900,East Maddisons Rd near Ledbury Dr,null,-43.62224,172.38318,,,,,,1
15335,15335,Northwood Blvd near O'Neill Ave,null,-43.46023,172.61975,,,,,,1
13157,13157,Woodbury St near Glenharrow Ave,null,-43.5181,172.54907,,,,,,1
18843,18843,Wainoni Rd near Pannell Ave,null,-43.52022,172.68304,,,,,,1
17997,17997,Rolleston Dr near Lincoln Rolleston Rd,null,-43.59348,172.3856,,,,,,1
